{"type": "FeatureCollection", "features": [{"type": "Feature", "geometry": {"type": "Point", "coordinates": [-80.0603613100663, 40.5646432776777]}, "properties": {"id": 2203, "data": null, "appid": 17203, "title": "Wall Park", "detail": null, "apptype": "Parks", "description": "Municipal"}}, {"type": "Feature", "geometry": {"type": "Point", "coordinates": [-79.7480461395, 40.4291104516839]}, "properties": {"id": 4338, "data": null, "appid": 19338, "title": "Forbes Hospital", "detail": "2570 Haymaker Road, Monroeville. PA 15146", "apptype": "Healthcare", "description": "Hospital"}}, {"type": "Feature", "geometry": {"type": "Point", "coordinates": [-79.9277446, 40.4324279999998]}, "properties": {"id": 4504, "data": null, "appid": 19504, "title": "Lubavitch Center", "detail": "2100 Wightman Street,  PA, 15217", "apptype": "Places of Worship", "description": null}}, {"type": "Feature", "geometry": {"type": "Point", "coordinates": [-79.880072, 40.4120983999998]}, "properties": {"id": 4505, "data": null, "appid": 19505, "title": "Rankin Christian Center", "detail": null, "apptype": "Places of Worship", "description": null}}, {"type": "Feature", "geometry": {"type": "Point", "coordinates": [-79.7720654, 40.4412257999998]}, "properties": {"id": 4506, "data": null, "appid": 19506, "title": "Saint Bernadette Catholic Church", "detail": "245 Azalea Drive, Monroeville PA, 15146", "apptype": "Places of Worship", "description": null}}, {"type": "Feature", "geometry": {"type": "Point", "coordinates": [-79.7553872, 40.3850485999998]}, "properties": {"id": 4507, "data": null, "appid": 19507, "title": "Saint Regis Roman Catholic Church Convent", "detail": null, "apptype": "Places of Worship", "description": null}}, {"type": "Feature", "geometry": {"type": "Point", "coordinates": [-79.898153, 40.4399509999998]}, "properties": {"id": 4508, "data": null, "appid": 19508, "title": "Waverly Presbyterian Church", "detail": null, "apptype": "Places of Worship", "description": null}}, {"type": "Feature", "geometry": {"type": "Point", "coordinates": [-79.9112005, 40.4422642999998]}, "properties": {"id": 4509, "data": null, "appid": 19509, "title": "St. Bede Parish", "detail": null, "apptype": "Places of Worship", "description": null}}, {"type": "Feature", "geometry": {"type": "Point", "coordinates": [-79.8273329, 40.4061482999998]}, "properties": {"id": 4511, "data": null, "appid": 19511, "title": "St. Colman", "detail": "100 Tri-Boro Expressway, Turtle Creek PA, 15145", "apptype": "Places of Worship", "description": null}}, {"type": "Feature", "geometry": {"type": "Point", "coordinates": [-79.9298529, 40.4380346999998]}, "properties": {"id": 4512, "data": null, "appid": 19512, "title": "Temple Sinai", "detail": "5505 Forbes Avenue, Pittsburgh PA, 15217", "apptype": "Places of Worship", "description": null}}, {"type": "Feature", "geometry": {"type": "Point", "coordinates": [-79.8222517, 40.3492077999998]}, "properties": {"id": 4513, "data": null, "appid": 19513, "title": "Gemilas Chesed Synagogue", "detail": null, "apptype": "Places of Worship", "description": null}}, {"type": "Feature", "geometry": {"type": "Point", "coordinates": [-79.7491346, 40.4254907999998]}, "properties": {"id": 4514, "data": null, "appid": 19514, "title": "Norh American Martyrs Church", "detail": "2526 Haymaker Road, monroeville PA, 15146", "apptype": "Places of Worship", "description": null}}, {"type": "Feature", "geometry": {"type": "Point", "coordinates": [-79.9211352, 40.4386204999998]}, "properties": {"id": 4517, "data": null, "appid": 19517, "title": "Ruggeri's Food Shoppe", "detail": null, "apptype": "Supermarkets and Convenience Stores", "description": "Convenience Store"}}, {"type": "Feature", "geometry": {"type": "Point", "coordinates": [-79.9267572, 40.4592929999998]}, "properties": {"id": 4519, "data": null, "appid": 19519, "title": "Walgreens", "detail": null, "apptype": "Supermarkets and Convenience Stores", "description": "Convenience Store"}}, {"type": "Feature", "geometry": {"type": "Point", "coordinates": [-79.9196761, 40.4378855999998]}, "properties": {"id": 4520, "data": null, "appid": 19520, "title": "Smoke Wizard", "detail": null, "apptype": "Supermarkets and Convenience Stores", "description": "Convenience Store"}}, {"type": "Feature", "geometry": {"type": "Point", "coordinates": [-79.7742641, 40.4376532999998]}, "properties": {"id": 4521, "data": null, "appid": 19521, "title": "Sheetz", "detail": null, "apptype": "Supermarkets and Convenience Stores", "description": "Convenience Store"}}, {"type": "Feature", "geometry": {"type": "Point", "coordinates": [-79.8210329, 40.3852527999999]}, "properties": {"id": 4522, "data": null, "appid": 19522, "title": "Save-A-Lot", "detail": "355 Lincoln Highway, North Versailles PA, 15137", "apptype": "Supermarkets and Convenience Stores", "description": "Convenience Store"}}, {"type": "Feature", "geometry": {"type": "Point", "coordinates": [-79.8208017, 40.3848175999998]}, "properties": {"id": 4523, "data": null, "appid": 19523, "title": "Good Samaritan Thrift Store", "detail": "355 Lincoln Highway, North Versailles PA, 15137", "apptype": "Supermarkets and Convenience Stores", "description": "Convenience Store"}}, {"type": "Feature", "geometry": {"type": "Point", "coordinates": [-79.8226032, 40.3856158999998]}, "properties": {"id": 4524, "data": null, "appid": 19524, "title": "Sally Beauty Supply", "detail": "130 Walmart Drive, North Versailles PA, 15137", "apptype": "Supermarkets and Convenience Stores", "description": "Convenience Store"}}, {"type": "Feature", "geometry": {"type": "Point", "coordinates": [-79.8917013, 40.3490883999998]}, "properties": {"id": 4525, "data": null, "appid": 19525, "title": "Spee-Ds", "detail": " 3rd Street, Dravosburg , 15034", "apptype": "Supermarkets and Convenience Stores", "description": "Convenience Store"}}, {"type": "Feature", "geometry": {"type": "Point", "coordinates": [-79.8216885, 40.3844348999998]}, "properties": {"id": 4526, "data": null, "appid": 19526, "title": "Family Dollar", "detail": "355 Lincoln Highway, North Versailles PA, 15137", "apptype": "Supermarkets and Convenience Stores", "description": "Convenience Store"}}, {"type": "Feature", "geometry": {"type": "Point", "coordinates": [-79.822855, 40.3858907999998]}, "properties": {"id": 4527, "data": null, "appid": 19527, "title": "Dollar Tree", "detail": "110 Walmart Drive, North Versailles PA, 15137", "apptype": "Supermarkets and Convenience Stores", "description": "Convenience Store"}}, {"type": "Feature", "geometry": {"type": "Point", "coordinates": [-79.8262418, 40.4059662999998]}, "properties": {"id": 4528, "data": null, "appid": 19528, "title": "Dollar General", "detail": "120 Penn Avenue, Turtle Creek PA, 15145", "apptype": "Supermarkets and Convenience Stores", "description": "Convenience Store"}}, {"type": "Feature", "geometry": {"type": "Point", "coordinates": [-79.9232257, 40.4328471999998]}, "properties": {"id": 4530, "data": null, "appid": 19530, "title": "The Greek Gourmet", "detail": null, "apptype": "Supermarkets and Convenience Stores", "description": "Convenience Store"}}, {"type": "Feature", "geometry": {"type": "Point", "coordinates": [-79.8669271, 40.3510092999998]}, "properties": {"id": 4531, "data": null, "appid": 19531, "title": "Money Mart", "detail": "142 Lysle Boulevard, McKeesport PA, 15132", "apptype": "Supermarkets and Convenience Stores", "description": "Convenience Store"}}, {"type": "Feature", "geometry": {"type": "Point", "coordinates": [-79.8938934, 40.4328212999998]}, "properties": {"id": 4532, "data": null, "appid": 19532, "title": "Braddock Avenue Express", "detail": "1101 South Braddock Avenue, Pittsburgh PA, 15218", "apptype": "Supermarkets and Convenience Stores", "description": "Convenience Store"}}, {"type": "Feature", "geometry": {"type": "Point", "coordinates": [-79.9345217, 40.4567198999998]}, "properties": {"id": 4533, "data": null, "appid": 19533, "title": "Giant Eagle Market District", "detail": "5550 Centre Ave, Pittsburgh PA, 15232", "apptype": "Supermarkets and Convenience Stores", "description": "Supermarket"}}, {"type": "Feature", "geometry": {"type": "Point", "coordinates": [-79.8957893, 40.4482485999998]}, "properties": {"id": 4534, "data": null, "appid": 19534, "title": "East End Food Co-op", "detail": null, "apptype": "Supermarkets and Convenience Stores", "description": "Supermarket"}}, {"type": "Feature", "geometry": {"type": "Point", "coordinates": [-79.8214789, 40.4701902999998]}, "properties": {"id": 4535, "data": null, "appid": 19535, "title": "Bottom Dollar Food", "detail": "12012 Frankstown Road, Penn Hills , 15235", "apptype": "Supermarkets and Convenience Stores", "description": "Supermarket"}}, {"type": "Feature", "geometry": {"type": "Point", "coordinates": [-79.831253, 40.3471316999998]}, "properties": {"id": 4536, "data": null, "appid": 19536, "title": "Giant Eagle", "detail": null, "apptype": "Supermarkets and Convenience Stores", "description": "Supermarket"}}, {"type": "Feature", "geometry": {"type": "Point", "coordinates": [-79.7672515, 40.3892634999998]}, "properties": {"id": 4537, "data": null, "appid": 19537, "title": "Shop 'N Save", "detail": null, "apptype": "Supermarkets and Convenience Stores", "description": "Supermarket"}}, {"type": "Feature", "geometry": {"type": "Point", "coordinates": [-79.9065816, 40.3609486999998]}, "properties": {"id": 4538, "data": null, "appid": 19538, "title": "Shop 'N Save", "detail": null, "apptype": "Supermarkets and Convenience Stores", "description": "Supermarket"}}, {"type": "Feature", "geometry": {"type": "Point", "coordinates": [-79.9192595, 40.4590944999998]}, "properties": {"id": 4539, "data": null, "appid": 19539, "title": "Trader Joe's", "detail": null, "apptype": "Supermarkets and Convenience Stores", "description": "Supermarket"}}, {"type": "Feature", "geometry": {"type": "Point", "coordinates": [-79.9348865, 40.4582007999998]}, "properties": {"id": 4540, "data": null, "appid": 19540, "title": "Aldi", "detail": "5631 Baum Boulevard, Pittsburgh PA, 15206", "apptype": "Supermarkets and Convenience Stores", "description": "Supermarket"}}, {"type": "Feature", "geometry": {"type": "Point", "coordinates": [-79.8683293, 40.3844069999998]}, "properties": {"id": 4541, "data": null, "appid": 19541, "title": "Giant Eagle", "detail": null, "apptype": "Supermarkets and Convenience Stores", "description": "Supermarket"}}, {"type": "Feature", "geometry": {"type": "Point", "coordinates": [-79.9230216, 40.4354599999998]}, "properties": {"id": 4542, "data": null, "appid": 19542, "title": "Murray Avenue Kosher", "detail": "1916 Murray Avenue,  , 15217", "apptype": "Supermarkets and Convenience Stores", "description": "Supermarket"}}, {"type": "Feature", "geometry": {"type": "Point", "coordinates": [-79.8902705, 40.3199677999998]}, "properties": {"id": 4543, "data": null, "appid": 19543, "title": "Spagnolo's Shop N' Save", "detail": "937 Ohio Avenue, Glassport PA, 15045", "apptype": "Supermarkets and Convenience Stores", "description": "Supermarket"}}, {"type": "Feature", "geometry": {"type": "Point", "coordinates": [-79.704652, 40.4624400999998]}, "properties": {"id": 4544, "data": null, "appid": 19544, "title": "Shop 'n Save", "detail": "2362 Golden Mile Highway, Plum PA, 15239", "apptype": "Supermarkets and Convenience Stores", "description": "Supermarket"}}, {"type": "Feature", "geometry": {"type": "Point", "coordinates": [-79.7126117, 40.4442955999998]}, "properties": {"id": 4545, "data": null, "appid": 19545, "title": "Aldi", "detail": "1766 Golden Mile Highway,  , ", "apptype": "Supermarkets and Convenience Stores", "description": "Supermarket"}}, {"type": "Feature", "geometry": {"type": "Point", "coordinates": [-79.7410307, 40.4387434999998]}, "properties": {"id": 4546, "data": null, "appid": 19546, "title": "Giant Eagle", "detail": null, "apptype": "Supermarkets and Convenience Stores", "description": "Supermarket"}}, {"type": "Feature", "geometry": {"type": "Point", "coordinates": [-79.7429999, 40.3304597999998]}, "properties": {"id": 4547, "data": null, "appid": 19547, "title": "Shop N' Save", "detail": null, "apptype": "Supermarkets and Convenience Stores", "description": "Supermarket"}}, {"type": "Feature", "geometry": {"type": "Point", "coordinates": [-79.9128589, 40.4075087999998]}, "properties": {"id": 4548, "data": null, "appid": 19548, "title": "ALDI", "detail": null, "apptype": "Supermarkets and Convenience Stores", "description": "Supermarket"}}, {"type": "Feature", "geometry": {"type": "Point", "coordinates": [-79.9124012, 40.4071626999998]}, "properties": {"id": 4549, "data": null, "appid": 19549, "title": "ALDI", "detail": null, "apptype": "Supermarkets and Convenience Stores", "description": "Supermarket"}}, {"type": "Feature", "geometry": {"type": "Point", "coordinates": [-79.8542960057587, 40.4144498599221]}, "properties": {"id": 4550, "data": null, "appid": 19550, "title": "Braddock Hills Shopping Center", "detail": null, "apptype": "Job Centers / Retail", "description": null}}, {"type": "Feature", "geometry": {"type": "Point", "coordinates": [-79.8426937144473, 40.3741897795017]}, "properties": {"id": 4551, "data": null, "appid": 19551, "title": "RIDC Riverplace / City Center of Duquesne", "detail": null, "apptype": "Job Centers / Retail", "description": null}}, {"type": "Feature", "geometry": {"type": "Point", "coordinates": [-79.8440844964507, 40.357749077623]}, "properties": {"id": 4552, "data": null, "appid": 19552, "title": "McKeesport-Duquesne Bridge", "detail": null, "apptype": "Landmark", "description": null}}, {"type": "Feature", "geometry": {"type": "Point", "coordinates": [-79.8808477467102, 40.4056155875158]}, "properties": {"id": 4553, "data": null, "appid": 19553, "title": "Rankin Bridge", "detail": null, "apptype": "Landmark", "description": null}}, {"type": "Feature", "geometry": {"type": "Point", "coordinates": [-79.9185752898198, 40.4107707542069]}, "properties": {"id": 4554, "data": null, "appid": 19554, "title": "Homestead Grays Bridge", "detail": null, "apptype": "Landmark", "description": null}}, {"type": "Feature", "geometry": {"type": "Point", "coordinates": [-80.0768619, 40.4795280999998]}, "properties": {"id": 4555, "data": null, "appid": 19555, "title": "PLEASANT RIDGE COMMUNITY CENTER", "detail": "251 Jefferson Drive, McKees Rocks, PA 15136", "apptype": "Community and Social Centers", "description": null}}, {"type": "Feature", "geometry": {"type": "Point", "coordinates": [-79.8462616, 40.3634548999998]}, "properties": {"id": 4556, "data": null, "appid": 19556, "title": "DUQUESNE BOYS & GIRLS CLUB", "detail": "938 Chestnut Street, Duquesne, PA 15110", "apptype": "Community and Social Centers", "description": null}}, {"type": "Feature", "geometry": {"type": "Point", "coordinates": [-80.0758526, 40.4798010999998]}, "properties": {"id": 4557, "data": null, "appid": 19557, "title": "The FIRST TEE of PITTSBURGH at Pleasant Ridge", "detail": "150 Pleasant Ridge Road, Stowe Township, PA 15136 ", "apptype": "Community and Social Centers", "description": null}}, {"type": "Feature", "geometry": {"type": "Point", "coordinates": [-80.0623436304846, 40.4991733642505]}, "properties": {"id": 8, "data": null, "appid": 15008, "title": "Greenstone United Methodist Church", "detail": "939 California Ave, Avalon, PA 15202-3034", "apptype": "Polling Places", "description": "Avalon, Ward 3, District 2"}}, {"type": "Feature", "geometry": {"type": "Point", "coordinates": [-80.0623436304846, 40.4991733642505]}, "properties": {"id": 9, "data": null, "appid": 15009, "title": "Greenstone United Methodist Church Gym", "detail": "939 California Ave, Avalon, PA 15202-3034", "apptype": "Polling Places", "description": "Avalon, Ward 3, District 3"}}, {"type": "Feature", "geometry": {"type": "Point", "coordinates": [-79.9705466188199, 40.3957190406986]}, "properties": {"id": 10, "data": null, "appid": 15010, "title": "Lafferty Center", "detail": "330 Joseph St, Pittsburgh, PA 15227", "apptype": "Polling Places", "description": "Baldwin Br, Ward 0, District 1"}}, {"type": "Feature", "geometry": {"type": "Point", "coordinates": [-79.9705466188199, 40.3957190406986]}, "properties": {"id": 11, "data": null, "appid": 15011, "title": "Lafferty Center", "detail": "330 Joseph St, Pittsburgh, PA 15227", "apptype": "Polling Places", "description": "Baldwin Br, Ward 0, District 2"}}, {"type": "Feature", "geometry": {"type": "Point", "coordinates": [-79.9569153225131, 40.3833094902847]}, "properties": {"id": 12, "data": null, "appid": 15012, "title": "Baldwin Boro Bldg", "detail": "3344 Churchview Ave, Pittsburgh, PA 15227", "apptype": "Polling Places", "description": "Baldwin Br, Ward 0, District 3"}}, {"type": "Feature", "geometry": {"type": "Point", "coordinates": [-79.9718191497396, 40.3481034626368]}, "properties": {"id": 13, "data": null, "appid": 15013, "title": "Option Independent Fire Co", "detail": "825 Streets Run Rd, Pittsburgh, PA 15236", "apptype": "Polling Places", "description": "Baldwin Br, Ward 0, District 5"}}, {"type": "Feature", "geometry": {"type": "Point", "coordinates": [-79.9626439789234, 40.3569952194783]}, "properties": {"id": 14, "data": null, "appid": 15014, "title": "Wallace Building", "detail": "41 Macek Dr, Baldwin Boro, PA 15227", "apptype": "Polling Places", "description": "Baldwin Br, Ward 0, District 9"}}, {"type": "Feature", "geometry": {"type": "Point", "coordinates": [-79.9570568568023, 40.3833698481059]}, "properties": {"id": 15, "data": null, "appid": 15015, "title": "Boro Bldg", "detail": "3344 Churchview Ave, Baldwin Boro, PA 15227", "apptype": "Polling Places", "description": "Baldwin Br, Ward 0, District 16"}}, {"type": "Feature", "geometry": {"type": "Point", "coordinates": [-79.9626439789234, 40.3569952194783]}, "properties": {"id": 16, "data": null, "appid": 15016, "title": "Wallace Building", "detail": "41 Macek Dr, Pittsburgh, PA 15227", "apptype": "Polling Places", "description": "Baldwin Br, Ward 0, District 18"}}, {"type": "Feature", "geometry": {"type": "Point", "coordinates": [-80.0175970568799, 40.3794081475563]}, "properties": {"id": 17, "data": null, "appid": 15017, "title": "Municipal Bldg Upper Level Hl", "detail": "10 Community Park Dr, Pittsburgh, PA 15234-2402", "apptype": "Polling Places", "description": "Baldwin Tp, Ward 0, District 1"}}, {"type": "Feature", "geometry": {"type": "Point", "coordinates": [-80.0175970568799, 40.3794081475563]}, "properties": {"id": 18, "data": null, "appid": 15018, "title": "Municipal Bldg Upper Level", "detail": "10 Community Park Dr, Pittsburgh, PA 15234-2402", "apptype": "Polling Places", "description": "Baldwin Tp, Ward 0, District 2"}}, {"type": "Feature", "geometry": {"type": "Point", "coordinates": [-80.0489805670032, 40.4925079439811]}, "properties": {"id": 19, "data": null, "appid": 15019, "title": "Roofers Local Union #37 Meeting Rm", "detail": "230 Lincoln Ave, Bellevue, PA 15202-3827", "apptype": "Polling Places", "description": "Bellevue, Ward 1, District 1"}}, {"type": "Feature", "geometry": {"type": "Point", "coordinates": [-80.0525281114534, 40.4952348065024]}, "properties": {"id": 20, "data": null, "appid": 15020, "title": "Northminster Church", "detail": "45 N Fremont Ave, Bellevue, PA 15202-3217", "apptype": "Polling Places", "description": "Bellevue, Ward 1, District 2"}}, {"type": "Feature", "geometry": {"type": "Point", "coordinates": [-80.0569595127078, 40.4965497891841]}, "properties": {"id": 21, "data": null, "appid": 15021, "title": "Center Of Bellevue", "detail": "2 N Sprague Ave, Bellevue, PA 15202", "apptype": "Polling Places", "description": "Bellevue, Ward 2, District 2"}}, {"type": "Feature", "geometry": {"type": "Point", "coordinates": [-80.0562830217837, 40.4968274920977]}, "properties": {"id": 22, "data": null, "appid": 15022, "title": "Bellevue Boro Fire Hall", "detail": "537 Bayne Ave, Bellevue, PA 15202", "apptype": "Polling Places", "description": "Bellevue, Ward 3, District 1"}}, {"type": "Feature", "geometry": {"type": "Point", "coordinates": [-80.0563780608728, 40.496693461253]}, "properties": {"id": 23, "data": null, "appid": 15023, "title": "Bellevue Boro Fire Hall", "detail": "537 Bayne Ave, Bellevue, PA 15202-3120", "apptype": "Polling Places", "description": "Bellevue, Ward 3, District 2"}}, {"type": "Feature", "geometry": {"type": "Point", "coordinates": [-80.0423345357645, 40.29662923521]}, "properties": {"id": 24, "data": null, "appid": 15024, "title": "Bethel Park V.F.C. Cliftion Station", "detail": "1100 Clifton Rd, Bethel Park, PA 15102", "apptype": "Polling Places", "description": "Bethel Park, Ward 2, District 1"}}, {"type": "Feature", "geometry": {"type": "Point", "coordinates": [-80.0228158826774, 40.3063796882765]}, "properties": {"id": 25, "data": null, "appid": 15025, "title": "Neil Armstrong Sch Gym Lwr Lvl Ent", "detail": "5800 Murray Ave, Bethel Park, PA 15102-3448", "apptype": "Polling Places", "description": "Bethel Park, Ward 2, District 2"}}, {"type": "Feature", "geometry": {"type": "Point", "coordinates": [-80.0228158826774, 40.3063796882765]}, "properties": {"id": 26, "data": null, "appid": 15026, "title": "Neil Armstrong Sch Gym Lwr Lvl Ent", "detail": "5800 Murray Ave, Bethel Park, PA 15102-3448", "apptype": "Polling Places", "description": "Bethel Park, Ward 2, District 3"}}, {"type": "Feature", "geometry": {"type": "Point", "coordinates": [-80.0566202229266, 40.3217452081432]}, "properties": {"id": 27, "data": null, "appid": 15027, "title": "Ruthfred Lutheran Church", "detail": "3401 South Park Rd, Bethel Park, PA 15102", "apptype": "Polling Places", "description": "Bethel Park, Ward 3, District 2"}}, {"type": "Feature", "geometry": {"type": "Point", "coordinates": [-80.0506202248454, 40.3016245523951]}, "properties": {"id": 28, "data": null, "appid": 15028, "title": "John Mcmillan  Presbyterian Ch", "detail": "875 Clifton Rd, Bethel Park, PA 15102", "apptype": "Polling Places", "description": "Bethel Park, Ward 3, District 3"}}, {"type": "Feature", "geometry": {"type": "Point", "coordinates": [-80.0123184694569, 40.3507232012628]}, "properties": {"id": 29, "data": null, "appid": 15029, "title": "Hamilton Presbyterian Church", "detail": "4500 Hamilton Rd, Pittsburgh, PA 15236-3370", "apptype": "Polling Places", "description": "Bethel Park, Ward 4, District 1"}}, {"type": "Feature", "geometry": {"type": "Point", "coordinates": [-80.0332136756501, 40.3488421657186]}, "properties": {"id": 30, "data": null, "appid": 15030, "title": "Bethel Park V.F.C. Milford Station", "detail": "2310 Milford Dr, Bethel Park, PA 15102-2114", "apptype": "Polling Places", "description": "Bethel Park, Ward 5, District 2"}}, {"type": "Feature", "geometry": {"type": "Point", "coordinates": [-80.0390180706274, 40.3410060878855]}, "properties": {"id": 31, "data": null, "appid": 15031, "title": "South Hills Assembly Lrg Lobby", "detail": "2725 Bethel Church Rd, Bethel Park, PA 15102-2036", "apptype": "Polling Places", "description": "Bethel Park, Ward 5, District 3"}}, {"type": "Feature", "geometry": {"type": "Point", "coordinates": [-80.0321170782965, 40.3076889189468]}, "properties": {"id": 32, "data": null, "appid": 15032, "title": "First Bethel United Meth Ch Founders Hall", "detail": "5901 Library Rd, Bethel Park, PA 15102", "apptype": "Polling Places", "description": "Bethel Park, Ward 6, District 2"}}, {"type": "Feature", "geometry": {"type": "Point", "coordinates": [-80.0320856078407, 40.3075972185988]}, "properties": {"id": 33, "data": null, "appid": 15033, "title": "First Bethel United Meth Ch Founders Hall", "detail": "5901 Library Rd, Bethel Park, PA 15102", "apptype": "Polling Places", "description": "Bethel Park, Ward 6, District 3"}}, {"type": "Feature", "geometry": {"type": "Point", "coordinates": [-80.0566202229266, 40.3217452081432]}, "properties": {"id": 34, "data": null, "appid": 15034, "title": "Ruthfred Lutheran Church", "detail": "3401 South Park Rd, Bethel Park, PA 15102", "apptype": "Polling Places", "description": "Bethel Park, Ward 7, District 1"}}, {"type": "Feature", "geometry": {"type": "Point", "coordinates": [-80.0479142356751, 40.3370827934219]}, "properties": {"id": 35, "data": null, "appid": 15035, "title": "Bethel Presby Church Aud", "detail": "2999 Bethel Church Rd, Bethel Park, PA 15102-1603", "apptype": "Polling Places", "description": "Bethel Park, Ward 7, District 2"}}, {"type": "Feature", "geometry": {"type": "Point", "coordinates": [-80.0479142356751, 40.3370827934219]}, "properties": {"id": 36, "data": null, "appid": 15036, "title": "Bethel Presby Church Aud", "detail": "2999 Bethel Church Rd, Bethel Park, PA 15102-1603", "apptype": "Polling Places", "description": "Bethel Park, Ward 7, District 3"}}, {"type": "Feature", "geometry": {"type": "Point", "coordinates": [-80.0484862978464, 40.3419725408129]}, "properties": {"id": 37, "data": null, "appid": 15037, "title": "Pathfinder School", "detail": "50 Donati Rd, Bethel Park, PA 15102", "apptype": "Polling Places", "description": "Bethel Park, Ward 8, District 1"}}, {"type": "Feature", "geometry": {"type": "Point", "coordinates": [-80.0484862978464, 40.3419725408129]}, "properties": {"id": 38, "data": null, "appid": 15038, "title": "Pathfinder School", "detail": "50 Donati Rd, Bethel Park, PA 15102", "apptype": "Polling Places", "description": "Bethel Park, Ward 8, District 2"}}, {"type": "Feature", "geometry": {"type": "Point", "coordinates": [-80.0314089574862, 40.3320613642289]}, "properties": {"id": 39, "data": null, "appid": 15039, "title": "Municipal Bldg Council Chambers", "detail": "5100 Library Ave, Bethel Park, PA 15102-2787", "apptype": "Polling Places", "description": "Bethel Park, Ward 8, District 3"}}, {"type": "Feature", "geometry": {"type": "Point", "coordinates": [-80.0479142356751, 40.3370827934219]}, "properties": {"id": 40, "data": null, "appid": 15040, "title": "Bethel Presby Church Rm 107", "detail": "2999 Bethel Church Rd, Bethel Park, PA 15102-1603", "apptype": "Polling Places", "description": "Bethel Park, Ward 8, District 4"}}, {"type": "Feature", "geometry": {"type": "Point", "coordinates": [-80.0434003970373, 40.2987919327518]}, "properties": {"id": 41, "data": null, "appid": 15041, "title": "Wm Penn School Library", "detail": "110 Woodlet Ln, Bethel Park, PA 15102-2350", "apptype": "Polling Places", "description": "Bethel Park, Ward 9, District 2"}}, {"type": "Feature", "geometry": {"type": "Point", "coordinates": [-80.0423345357645, 40.29662923521]}, "properties": {"id": 42, "data": null, "appid": 15042, "title": "John Mcmillan Un Presbyterian Ch (Usa)", "detail": "1100 Clifton Rd, Bethel Park, PA 15102", "apptype": "Polling Places", "description": "Bethel Park, Ward 9, District 3"}}, {"type": "Feature", "geometry": {"type": "Point", "coordinates": [-79.7389098524492, 40.6043874580826]}, "properties": {"id": 43, "data": null, "appid": 15043, "title": "Pioneer Hose Co", "detail": "124 Morgan St, Brackenridge, PA 15014-1415", "apptype": "Polling Places", "description": "Brackenridge, Ward 1, District 0"}}, {"type": "Feature", "geometry": {"type": "Point", "coordinates": [-79.7389098524492, 40.6043874580826]}, "properties": {"id": 44, "data": null, "appid": 15044, "title": "Pioneer Hose Co #1", "detail": "124 Morgan St, Brackenridge, PA 15014", "apptype": "Polling Places", "description": "Brackenridge, Ward 2, District 0"}}, {"type": "Feature", "geometry": {"type": "Point", "coordinates": [-79.7390229159651, 40.6043552639921]}, "properties": {"id": 45, "data": null, "appid": 15045, "title": "Pioneer Hose Co", "detail": "124 Morgan St, Brackenridge, PA 15014", "apptype": "Polling Places", "description": "Brackenridge, Ward 3, District 0"}}, {"type": "Feature", "geometry": {"type": "Point", "coordinates": [-79.8702871484451, 40.4106476758827]}, "properties": {"id": 46, "data": null, "appid": 15046, "title": "Lundine Apartments Lobby", "detail": "125 Corey Ave, Braddock, PA 15104", "apptype": "Polling Places", "description": "Braddock, Ward 1, District 0"}}, {"type": "Feature", "geometry": {"type": "Point", "coordinates": [-79.8683563795645, 40.4037888034353]}, "properties": {"id": 47, "data": null, "appid": 15047, "title": "Braddock Boro Bldg Council Chambers", "detail": "415 6Th St, Braddock, PA 15104", "apptype": "Polling Places", "description": "Braddock, Ward 2, District 0"}}, {"type": "Feature", "geometry": {"type": "Point", "coordinates": [-79.8634527350122, 40.4219201854083]}, "properties": {"id": 48, "data": null, "appid": 15048, "title": "Braddock Hills Elem School", "detail": "1300 Brinton Rd, Pittsburgh, PA 15221", "apptype": "Polling Places", "description": "Braddock Hl, Ward 0, District 1"}}, {"type": "Feature", "geometry": {"type": "Point", "coordinates": [-79.868674711326, 40.4241287027309]}, "properties": {"id": 49, "data": null, "appid": 15049, "title": "Braddock Hills Sr. Center", "detail": "2794 Columbia Ave, Pittsburgh, PA 15221", "apptype": "Polling Places", "description": "Braddock Hl, Ward 0, District 2"}}, {"type": "Feature", "geometry": {"type": "Point", "coordinates": [-80.0810368391681, 40.6349377818093]}, "properties": {"id": 50, "data": null, "appid": 15050, "title": "Bradford Woods Comm Church", "detail": "4836 Wexford Run Rd, Bradford Woods, PA 15015", "apptype": "Polling Places", "description": "Bradfordwood, Ward 0, District 1"}}, {"type": "Feature", "geometry": {"type": "Point", "coordinates": [-79.9745162046519, 40.3685119780272]}, "properties": {"id": 51, "data": null, "appid": 15051, "title": "Moore Elementary School  Gym", "detail": "3809 Dalewood St, Brentwood, PA 15227", "apptype": "Polling Places", "description": "Brentwood, Ward 0, District 1"}}, {"type": "Feature", "geometry": {"type": "Point", "coordinates": [-79.9751929629129, 40.3800523110666]}, "properties": {"id": 52, "data": null, "appid": 15052, "title": "Concord Luth Ch Ed Bld Lwr Lvl", "detail": "3109 Brownsville Rd, Brentwood, PA 15227-2429", "apptype": "Polling Places", "description": "Brentwood, Ward 0, District 2"}}, {"type": "Feature", "geometry": {"type": "Point", "coordinates": [-79.9668998196395, 40.3809298750296]}, "properties": {"id": 53, "data": null, "appid": 15053, "title": "Private Residence Garage", "detail": "3209 Willett Rd, Brentwood, PA 15227-3043", "apptype": "Polling Places", "description": "Brentwood, Ward 0, District 4"}}, {"type": "Feature", "geometry": {"type": "Point", "coordinates": [-79.9717544041119, 40.3750524381457]}, "properties": {"id": 54, "data": null, "appid": 15054, "title": "Boro Bldg", "detail": "3624 Brownsville Rd, Brentwood, PA 15227-3153", "apptype": "Polling Places", "description": "Brentwood, Ward 0, District 6"}}, {"type": "Feature", "geometry": {"type": "Point", "coordinates": [-79.9745162046519, 40.3685119780272]}, "properties": {"id": 55, "data": null, "appid": 15055, "title": "Moore Elementary School Gym", "detail": "3809 Dalewood St, Brentwood, PA 15227", "apptype": "Polling Places", "description": "Brentwood, Ward 0, District 9"}}, {"type": "Feature", "geometry": {"type": "Point", "coordinates": [-80.1068472929435, 40.3621367418121]}, "properties": {"id": 56, "data": null, "appid": 15056, "title": "Bridgeville Vol Fire Co Lobby", "detail": "370 Commercial St, Bridgeville, PA 15017-2347", "apptype": "Polling Places", "description": "Bridgeville, Ward 0, District 1"}}, {"type": "Feature", "geometry": {"type": "Point", "coordinates": [-80.1068472929435, 40.3621367418121]}, "properties": {"id": 57, "data": null, "appid": 15057, "title": "Bridgeville Vol Fire Co Lobby", "detail": "370 Commercial St, Bridgeville, PA 15017-2347", "apptype": "Polling Places", "description": "Bridgeville, Ward 0, District 2"}}, {"type": "Feature", "geometry": {"type": "Point", "coordinates": [-80.090554150673, 40.4047739054215]}, "properties": {"id": 58, "data": null, "appid": 15058, "title": "Carnegie Vol Fire & Rescue Amb Bay", "detail": "201 Main St, Carnegie, PA 15106-2621", "apptype": "Polling Places", "description": "Carnegie, Ward 1, District 1"}}, {"type": "Feature", "geometry": {"type": "Point", "coordinates": [-80.090554150673, 40.4047739054215]}, "properties": {"id": 59, "data": null, "appid": 15059, "title": "Carnegie Vol Fire & Rescue Amb Bay", "detail": "201 Main St, Carnegie, PA 15106-2621", "apptype": "Polling Places", "description": "Carnegie, Ward 1, District 4"}}, {"type": "Feature", "geometry": {"type": "Point", "coordinates": [-80.0817873965802, 40.4013791800692]}, "properties": {"id": 60, "data": null, "appid": 15060, "title": "Carnegie Elementary School 1St Fl", "detail": "301 Franklin Ave, Carnegie, PA 15106-3031", "apptype": "Polling Places", "description": "Carnegie, Ward 2, District 3"}}, {"type": "Feature", "geometry": {"type": "Point", "coordinates": [-80.0817873965802, 40.4013791800692]}, "properties": {"id": 61, "data": null, "appid": 15061, "title": "Carnegie Elementary School", "detail": "301 Franklin Ave, Carnegie, PA 15106", "apptype": "Polling Places", "description": "Carnegie, Ward 2, District 4"}}, {"type": "Feature", "geometry": {"type": "Point", "coordinates": [-80.0292193543671, 40.3618923410458]}, "properties": {"id": 62, "data": null, "appid": 15062, "title": "St Anne'S School Cafeteria", "detail": "4040 Willow Ave, Castle Shannon, PA 15234", "apptype": "Polling Places", "description": "Casl Shannon, Ward 0, District 4"}}, {"type": "Feature", "geometry": {"type": "Point", "coordinates": [-80.0292193543671, 40.3618923410458]}, "properties": {"id": 63, "data": null, "appid": 15063, "title": "St Anne'S School Gym", "detail": "4040 Willow Ave, Castle Shannon, PA 15234", "apptype": "Polling Places", "description": "Casl Shannon, Ward 0, District 6"}}, {"type": "Feature", "geometry": {"type": "Point", "coordinates": [-79.7999337414062, 40.5428271178854]}, "properties": {"id": 64, "data": null, "appid": 15064, "title": "Cheswick Volunteer Fire Co", "detail": "1411 Spruce St, Cheswick, PA 15024", "apptype": "Polling Places", "description": "Cheswick, Ward 0, District 1"}}, {"type": "Feature", "geometry": {"type": "Point", "coordinates": [-79.7999337414062, 40.5428271178854]}, "properties": {"id": 65, "data": null, "appid": 15065, "title": "Cheswick Volunteer Fire Co", "detail": "1411 Spruce St, Cheswick, PA 15024", "apptype": "Polling Places", "description": "Cheswick, Ward 0, District 2"}}, {"type": "Feature", "geometry": {"type": "Point", "coordinates": [-79.8861037276062, 40.2862882847634]}, "properties": {"id": 66, "data": null, "appid": 15066, "title": "1St United Meth Ch Ramp Dr", "detail": "500 Thompson Ave, Clairton, PA 15025-1041", "apptype": "Polling Places", "description": "Clairton, Ward 2, District 3"}}, {"type": "Feature", "geometry": {"type": "Point", "coordinates": [-79.8859572205632, 40.286711919557]}, "properties": {"id": 67, "data": null, "appid": 15067, "title": "1St United Meth Ch Ramp Dr", "detail": "500 Thompson Ave, Clairton, PA 15025", "apptype": "Polling Places", "description": "Clairton, Ward 3, District 1"}}, {"type": "Feature", "geometry": {"type": "Point", "coordinates": [-79.8861037276062, 40.2862882847634]}, "properties": {"id": 68, "data": null, "appid": 15068, "title": "1St Un Methodist Ch Ramp Dr", "detail": "500 Thompson Ave, Clairton, PA 15025-1041", "apptype": "Polling Places", "description": "Clairton, Ward 3, District 2"}}, {"type": "Feature", "geometry": {"type": "Point", "coordinates": [-79.8942949924554, 40.2959234722102]}, "properties": {"id": 69, "data": null, "appid": 15069, "title": "Clairton Municipal Building", "detail": "551 Ravensburg Blvd, Clairton, PA 15025", "apptype": "Polling Places", "description": "Clairton, Ward 4, District 2"}}, {"type": "Feature", "geometry": {"type": "Point", "coordinates": [-79.8947417353998, 40.2962707210948]}, "properties": {"id": 70, "data": null, "appid": 15070, "title": "Clairton Municipal Building", "detail": "551 Ravensburg Blvd, Clairton, PA 15025-1239", "apptype": "Polling Places", "description": "Clairton, Ward 4, District 3"}}, {"type": "Feature", "geometry": {"type": "Point", "coordinates": [-80.1622532134326, 40.3976163912916]}, "properties": {"id": 71, "data": null, "appid": 15071, "title": "Collier Commumity Center", "detail": "5 Lobaugh St, Collier, PA 15071", "apptype": "Polling Places", "description": "Collier, Ward 0, District 1"}}, {"type": "Feature", "geometry": {"type": "Point", "coordinates": [-80.1426474929737, 40.3976993280547]}, "properties": {"id": 72, "data": null, "appid": 15072, "title": "Rennerdale Vol Fire Co 1St Fl Hall", "detail": "30 Suburban Ave, Carnegie, PA 15106-1489", "apptype": "Polling Places", "description": "Collier, Ward 0, District 2"}}, {"type": "Feature", "geometry": {"type": "Point", "coordinates": [-80.0976710555886, 40.3815858140141]}, "properties": {"id": 73, "data": null, "appid": 15073, "title": "Village Of Neville Park", "detail": "100 Neville Park Blvd, Bridgeville, PA 15017-2835", "apptype": "Polling Places", "description": "Collier, Ward 0, District 4"}}, {"type": "Feature", "geometry": {"type": "Point", "coordinates": [-80.1625328875067, 40.5210598771802]}, "properties": {"id": 74, "data": null, "appid": 15074, "title": "Coraopolis Towers", "detail": "951 1St Ave, Coraopolis, PA 15108-1424", "apptype": "Polling Places", "description": "Coraopolis, Ward 2, District 0"}}, {"type": "Feature", "geometry": {"type": "Point", "coordinates": [-80.0668191382768, 40.4344557227003]}, "properties": {"id": 75, "data": null, "appid": 15075, "title": "Community Ctr Elev 2Nd Fl", "detail": "140 Bradford Avenue Side Ent, Crafton, PA 15205-3050", "apptype": "Polling Places", "description": "Crafton, Ward 1, District 1"}}, {"type": "Feature", "geometry": {"type": "Point", "coordinates": [-80.0649244927215, 40.4383658462328]}, "properties": {"id": 76, "data": null, "appid": 15076, "title": "St Matthews Church Hall", "detail": "45 Steuben St, Pittsburgh, PA 15205", "apptype": "Polling Places", "description": "Crafton, Ward 2, District 1"}}, {"type": "Feature", "geometry": {"type": "Point", "coordinates": [-80.0681500909741, 40.4406972693446]}, "properties": {"id": 77, "data": null, "appid": 15077, "title": "Crafton Towers Rec Rm", "detail": "1215 Foster Ave, Crafton, PA 15205-2771", "apptype": "Polling Places", "description": "Crafton, Ward 2, District 2"}}, {"type": "Feature", "geometry": {"type": "Point", "coordinates": [-80.0680608437675, 40.4357207091751]}, "properties": {"id": 78, "data": null, "appid": 15078, "title": "American Legion Post 145", "detail": "300 N Linwood Ave, Crafton, PA 15205", "apptype": "Polling Places", "description": "Crafton, Ward 3, District 1"}}, {"type": "Feature", "geometry": {"type": "Point", "coordinates": [-80.0730116521757, 40.4294931422948]}, "properties": {"id": 79, "data": null, "appid": 15079, "title": "Presbyterian Ch Sun Sch Rm", "detail": "90 Hawthorne Ave, Crafton, PA 15205", "apptype": "Polling Places", "description": "Crafton, Ward 3, District 2"}}, {"type": "Feature", "geometry": {"type": "Point", "coordinates": [-80.2218944532513, 40.5553851233972]}, "properties": {"id": 80, "data": null, "appid": 15080, "title": "Crescent Twp Building", "detail": "225 Spring Run Rd, Crescent, PA 15046", "apptype": "Polling Places", "description": "Crescent, Ward 1, District 0"}}, {"type": "Feature", "geometry": {"type": "Point", "coordinates": [-80.2218944532513, 40.5553851233972]}, "properties": {"id": 81, "data": null, "appid": 15081, "title": "Crescent Twp Buidling", "detail": "225 Spring Run Rd, Crescent, PA 15046", "apptype": "Polling Places", "description": "Crescent, Ward 2, District 0"}}, {"type": "Feature", "geometry": {"type": "Point", "coordinates": [-80.0373872122536, 40.398100708167]}, "properties": {"id": 82, "data": null, "appid": 15082, "title": "Dormont United Methodist Church", "detail": "1641 Potomac Ave, Dormont, PA 15216", "apptype": "Polling Places", "description": "Dormont, Ward 0, District 1"}}, {"type": "Feature", "geometry": {"type": "Point", "coordinates": [-80.034944554509, 40.3964126788928]}, "properties": {"id": 83, "data": null, "appid": 15083, "title": "Dormont Presby Church Room 101", "detail": "2865 Espy Ave, Dormont, PA 15216", "apptype": "Polling Places", "description": "Dormont, Ward 0, District 3"}}, {"type": "Feature", "geometry": {"type": "Point", "coordinates": [-80.0373872122536, 40.398100708167]}, "properties": {"id": 84, "data": null, "appid": 15084, "title": "Dormont United Methodist Church", "detail": "1641 Potomac Ave, Dormont, PA 15216", "apptype": "Polling Places", "description": "Dormont, Ward 0, District 4"}}, {"type": "Feature", "geometry": {"type": "Point", "coordinates": [-80.034944554509, 40.3964126788928]}, "properties": {"id": 85, "data": null, "appid": 15085, "title": "Dormont Presby Church Room 101", "detail": "2865 Espy Ave, Dormont, PA 15216", "apptype": "Polling Places", "description": "Dormont, Ward 0, District 5"}}, {"type": "Feature", "geometry": {"type": "Point", "coordinates": [-79.8935567352791, 40.3464877725253]}, "properties": {"id": 86, "data": null, "appid": 15086, "title": "Dravosburg Housing Assn Social Rm", "detail": "42 Scott Dr, Dravosburg, PA 15034-1154", "apptype": "Polling Places", "description": "Dravosburg, Ward 0, District 3"}}, {"type": "Feature", "geometry": {"type": "Point", "coordinates": [-79.8640530044369, 40.3825369690249]}, "properties": {"id": 87, "data": null, "appid": 15087, "title": "Masonic Hall", "detail": "1200 Clonmel St, Duquesne, PA 15110", "apptype": "Polling Places", "description": "Duquesne, Ward 1, District 1"}}, {"type": "Feature", "geometry": {"type": "Point", "coordinates": [-79.8641877733772, 40.3828136535497]}, "properties": {"id": 88, "data": null, "appid": 15088, "title": "Masonic Hall", "detail": "1200 Clonmel St, Duquesne, PA 15110", "apptype": "Polling Places", "description": "Duquesne, Ward 1, District 2"}}, {"type": "Feature", "geometry": {"type": "Point", "coordinates": [-79.847899503008, 40.3738641920814]}, "properties": {"id": 89, "data": null, "appid": 15089, "title": "Harry S. Truman Tower", "detail": "25 N 2Nd St, Duquesne, PA 15110-1148", "apptype": "Polling Places", "description": "Duquesne, Ward 1, District 3"}}, {"type": "Feature", "geometry": {"type": "Point", "coordinates": [-79.847899503008, 40.3738641920814]}, "properties": {"id": 90, "data": null, "appid": 15090, "title": "Harry S. Truman Tower", "detail": "25 N 2Nd St, Duquesne, PA 15110-1148", "apptype": "Polling Places", "description": "Duquesne, Ward 2, District 1"}}, {"type": "Feature", "geometry": {"type": "Point", "coordinates": [-79.8490549199053, 40.3710972960975]}, "properties": {"id": 91, "data": null, "appid": 15091, "title": "St Hedwig Church", "detail": "105 5Th St, Duquesne, PA 15110-1813", "apptype": "Polling Places", "description": "Duquesne, Ward 2, District 3"}}, {"type": "Feature", "geometry": {"type": "Point", "coordinates": [-79.8492179590935, 40.364622192447]}, "properties": {"id": 92, "data": null, "appid": 15092, "title": "St. Peter & Paul Byzan Social Hall", "detail": "701 Foster Ave, Duquesne, PA 15110", "apptype": "Polling Places", "description": "Duquesne, Ward 3, District 1"}}, {"type": "Feature", "geometry": {"type": "Point", "coordinates": [-79.8428512326019, 40.3665703194888]}, "properties": {"id": 93, "data": null, "appid": 15093, "title": "Macedonia Baptist Church 1St Fl", "detail": "17 Cochran Ave, Duquesne, PA 15110-1305", "apptype": "Polling Places", "description": "Duquesne, Ward 3, District 2"}}, {"type": "Feature", "geometry": {"type": "Point", "coordinates": [-79.7793047317001, 40.5809290220897]}, "properties": {"id": 94, "data": null, "appid": 15094, "title": "Holy Family R C Church Social Hall", "detail": "787 Freeport Rd, Creighton, PA 15030-1028", "apptype": "Polling Places", "description": "East Deer, Ward 2, District 0"}}, {"type": "Feature", "geometry": {"type": "Point", "coordinates": [-79.8047224044504, 40.3876795719409]}, "properties": {"id": 95, "data": null, "appid": 15095, "title": "United Volunteer Fire & Rescue", "detail": "611 Broadway St, East Mckeesport, PA 15035", "apptype": "Polling Places", "description": "E Mckeesport, Ward 0, District 1"}}, {"type": "Feature", "geometry": {"type": "Point", "coordinates": [-79.8091235195343, 40.3824054896005]}, "properties": {"id": 96, "data": null, "appid": 15096, "title": "E. Mckeesport Senior Citizen Com Ctr", "detail": "539 Chicora St, East Mckeesport, PA 15035", "apptype": "Polling Places", "description": "E Mckeesport, Ward 0, District 2"}}, {"type": "Feature", "geometry": {"type": "Point", "coordinates": [-79.8091235195343, 40.3824054896005]}, "properties": {"id": 97, "data": null, "appid": 15097, "title": "E. Mckeesport Senior Citizen Com Ctr", "detail": "539 Chicora St, East Mckeesport, PA 15035", "apptype": "Polling Places", "description": "E Mckeesport, Ward 0, District 3"}}, {"type": "Feature", "geometry": {"type": "Point", "coordinates": [-79.8842971480747, 40.4342898799723]}, "properties": {"id": 98, "data": null, "appid": 15098, "title": "Boro Bldg", "detail": "2 Race St, Pittsburgh, PA 15218", "apptype": "Polling Places", "description": "Edgewood, Ward 0, District 2"}}, {"type": "Feature", "geometry": {"type": "Point", "coordinates": [-79.8842971480747, 40.4342898799723]}, "properties": {"id": 99, "data": null, "appid": 15099, "title": "Boro Bldg", "detail": "2 Race St, Pittsburgh, PA 15218", "apptype": "Polling Places", "description": "Edgewood, Ward 0, District 3"}}, {"type": "Feature", "geometry": {"type": "Point", "coordinates": [-79.7994917893259, 40.2758383509845]}, "properties": {"id": 100, "data": null, "appid": 15100, "title": "Buena Vista Vol Fire Co", "detail": "3333 Station St, Buena Vista, PA 15018", "apptype": "Polling Places", "description": "Elizabeth Tp, Ward 3, District 0"}}, {"type": "Feature", "geometry": {"type": "Point", "coordinates": [-79.8152363949416, 40.2966785864309]}, "properties": {"id": 101, "data": null, "appid": 15101, "title": "Mt Vernon Presbyterian Church", "detail": "2200 Buena Vista Rd, Mckeesport, PA 15135", "apptype": "Polling Places", "description": "Elizabeth Tp, Ward 4, District 1"}}, {"type": "Feature", "geometry": {"type": "Point", "coordinates": [-79.8152363949416, 40.2966785864309]}, "properties": {"id": 102, "data": null, "appid": 15102, "title": "Mt Vernon Presbyterian Church", "detail": "2200 Buena Vista Rd, Mckeesport, PA 15135", "apptype": "Polling Places", "description": "Elizabeth Tp, Ward 4, District 2"}}, {"type": "Feature", "geometry": {"type": "Point", "coordinates": [-79.8002302376213, 40.3110086966025]}, "properties": {"id": 103, "data": null, "appid": 15103, "title": "Greenock Fire Hall", "detail": "1002 Buena Vista Rd, Greenock, PA 15047", "apptype": "Polling Places", "description": "Elizabeth Tp, Ward 5, District 2"}}, {"type": "Feature", "geometry": {"type": "Point", "coordinates": [-79.8750697363816, 40.2729917516975]}, "properties": {"id": 104, "data": null, "appid": 15104, "title": "Blaine Hill Vol Fire Co", "detail": "409 Oxford Ave, Elizabeth, PA 15037-1829", "apptype": "Polling Places", "description": "Elizabeth Tp, Ward 7, District 2"}}, {"type": "Feature", "geometry": {"type": "Point", "coordinates": [-79.944595864477, 40.4979781005271]}, "properties": {"id": 105, "data": null, "appid": 15105, "title": "Calvert Memorial U P Church", "detail": "94 Locust St, Etna, PA 15223-2117", "apptype": "Polling Places", "description": "Etna, Ward 1, District 0"}}, {"type": "Feature", "geometry": {"type": "Point", "coordinates": [-79.9441095550034, 40.4996773378572]}, "properties": {"id": 106, "data": null, "appid": 15106, "title": "Etna Borough Building", "detail": "437 Butler St, Etna, PA 15223-2126", "apptype": "Polling Places", "description": "Etna, Ward 2, District 0"}}, {"type": "Feature", "geometry": {"type": "Point", "coordinates": [-79.951620556843, 40.5031770477055]}, "properties": {"id": 107, "data": null, "appid": 15107, "title": "All Saints Activity Bldg", "detail": "19 Wilson St, Etna, PA 15223-1735", "apptype": "Polling Places", "description": "Etna, Ward 3, District 0"}}, {"type": "Feature", "geometry": {"type": "Point", "coordinates": [-79.7540726715472, 40.6580641582324]}, "properties": {"id": 108, "data": null, "appid": 15108, "title": "Municipal Bldg First Floor", "detail": "3054 Howes Run Rd, Tarentum, PA 15084", "apptype": "Polling Places", "description": "Fawn, Ward 0, District 1"}}, {"type": "Feature", "geometry": {"type": "Point", "coordinates": [-79.8417857691064, 40.418110921469]}, "properties": {"id": 109, "data": null, "appid": 15109, "title": "Forest Hills Westinghouse Lodge", "detail": "700 Barclay Ave, Pittsburgh, PA 15221-4214", "apptype": "Polling Places", "description": "Forest Hills, Ward 0, District 4"}}, {"type": "Feature", "geometry": {"type": "Point", "coordinates": [-79.844753413069, 40.4225454204378]}, "properties": {"id": 110, "data": null, "appid": 15110, "title": "Christ Lutheran Church", "detail": "400 Barclay Avenue Frnt Ent, Pittsburgh, PA 15221-4036", "apptype": "Polling Places", "description": "Forest Hills, Ward 0, District 5"}}, {"type": "Feature", "geometry": {"type": "Point", "coordinates": [-79.8842419861002, 40.1983555141781]}, "properties": {"id": 111, "data": null, "appid": 15111, "title": "Fire Hall", "detail": "  Rt 136 Gallatin Rd, Elizabeth, PA 15063", "apptype": "Polling Places", "description": "Forward, Ward 0, District 1"}}, {"type": "Feature", "geometry": {"type": "Point", "coordinates": [-79.8799511075512, 40.2295343954596]}, "properties": {"id": 112, "data": null, "appid": 15112, "title": "Forward Twp V.F.D.", "detail": "9019 Roberts Hollow Rd, Elizabeth, PA 15063", "apptype": "Polling Places", "description": "Forward, Ward 0, District 2"}}, {"type": "Feature", "geometry": {"type": "Point", "coordinates": [-79.884145895616, 40.1984438085105]}, "properties": {"id": 113, "data": null, "appid": 15113, "title": "Forward Twp Municipal Bldg", "detail": "500 Liggett Ave, Monongahela, PA 15063-4004", "apptype": "Polling Places", "description": "Forward, Ward 0, District 3"}}, {"type": "Feature", "geometry": {"type": "Point", "coordinates": [-79.8799511075512, 40.2295343954596]}, "properties": {"id": 114, "data": null, "appid": 15114, "title": "Forward Twp V.F.D.", "detail": "9019 Roberts Hollow Rd, Elizabeth, PA 15063", "apptype": "Polling Places", "description": "Forward, Ward 0, District 4"}}, {"type": "Feature", "geometry": {"type": "Point", "coordinates": [-79.8798245295814, 40.5153450565462]}, "properties": {"id": 115, "data": null, "appid": 15115, "title": "Cooper-Siegel Community Library", "detail": "403 Fox Chapel Rd, Pittsburgh, PA 15238-2225", "apptype": "Polling Places", "description": "Fox Chapel, Ward 0, District 1"}}, {"type": "Feature", "geometry": {"type": "Point", "coordinates": [-80.0704468701529, 40.5711956990473]}, "properties": {"id": 116, "data": null, "appid": 15116, "title": "St. John Neumann Parish Hall", "detail": "2230 Rochester Rd, Pittsburgh, PA 15237-1691", "apptype": "Polling Places", "description": "Franklin Pk, Ward 2, District 2"}}, {"type": "Feature", "geometry": {"type": "Point", "coordinates": [-80.0804464630054, 40.6011738346489]}, "properties": {"id": 117, "data": null, "appid": 15117, "title": "Trinity Evan Lutheran Church", "detail": "2500 Brandt School Rd, Wexford, PA 15090-7628", "apptype": "Polling Places", "description": "Franklin Pk, Ward 3, District 1"}}, {"type": "Feature", "geometry": {"type": "Point", "coordinates": [-80.0783483999991, 40.5815407941643]}, "properties": {"id": 118, "data": null, "appid": 15118, "title": "New Boro Building 1St Fl", "detail": "2344 Ingomar Rd, Pittsburgh, PA 15237-1691", "apptype": "Polling Places", "description": "Franklin Pk, Ward 3, District 2"}}, {"type": "Feature", "geometry": {"type": "Point", "coordinates": [-80.046985428123, 40.4187580897574]}, "properties": {"id": 119, "data": null, "appid": 15119, "title": "Greentree Muni Bldg Council Cha", "detail": "10 Manilla Ave, Pittsburgh, PA 15220-3131", "apptype": "Polling Places", "description": "Greentree, Ward 0, District 2"}}, {"type": "Feature", "geometry": {"type": "Point", "coordinates": [-80.0471305279255, 40.4190254569729]}, "properties": {"id": 120, "data": null, "appid": 15120, "title": "Greentree Muni Bldg Council Cha", "detail": "10 Manilla Ave, Pittsburgh, PA 15220-3131", "apptype": "Polling Places", "description": "Greentree, Ward 0, District 3"}}, {"type": "Feature", "geometry": {"type": "Point", "coordinates": [-80.0472453625932, 40.4223724078637]}, "properties": {"id": 121, "data": null, "appid": 15121, "title": "St. Margaret Church-Cafeteria", "detail": "310 Mansfield Ave, Pittsburgh, PA 15220-2902", "apptype": "Polling Places", "description": "Greentree, Ward 0, District 4"}}, {"type": "Feature", "geometry": {"type": "Point", "coordinates": [-79.9442813888308, 40.6126635793101]}, "properties": {"id": 122, "data": null, "appid": 15122, "title": "Hampton Presby Church Gym", "detail": "2942 Hardies Rd, Gibsonia, PA 15044", "apptype": "Polling Places", "description": "Hampton, Ward 0, District 2"}}, {"type": "Feature", "geometry": {"type": "Point", "coordinates": [-79.9678842104282, 40.5917658960975]}, "properties": {"id": 123, "data": null, "appid": 15123, "title": "St Catherine Rear Ent Church Hall", "detail": "2554 Wildwood Rd, Allison Park, PA 15101-2224", "apptype": "Polling Places", "description": "Hampton, Ward 0, District 3"}}, {"type": "Feature", "geometry": {"type": "Point", "coordinates": [-79.949497099666, 40.6125653907374]}, "properties": {"id": 124, "data": null, "appid": 15124, "title": "North Hampton Vol Fire Co", "detail": "5149 Pioneer Rd, Gibsonia, PA 15044-9641", "apptype": "Polling Places", "description": "Hampton, Ward 0, District 9"}}, {"type": "Feature", "geometry": {"type": "Point", "coordinates": [-79.9678842104282, 40.5917658960975]}, "properties": {"id": 125, "data": null, "appid": 15125, "title": "St Catherine Rear Ent Church Hall", "detail": "2554 Wildwood Rd, Allison Park, PA 15101-2224", "apptype": "Polling Places", "description": "Hampton, Ward 0, District 10"}}, {"type": "Feature", "geometry": {"type": "Point", "coordinates": [-79.9440646964762, 40.6125764194969]}, "properties": {"id": 126, "data": null, "appid": 15126, "title": "Hampton Presby Church Gym", "detail": "2942 Hardies Rd, Gibsonia, PA 15044", "apptype": "Polling Places", "description": "Hampton, Ward 0, District 11"}}, {"type": "Feature", "geometry": {"type": "Point", "coordinates": [-79.8201321488772, 40.5424575538552]}, "properties": {"id": 127, "data": null, "appid": 15127, "title": "Harmar Twp Muni Bldg 1St Floor", "detail": "701 Freeport Rd, Cheswick, PA 15024-1205", "apptype": "Polling Places", "description": "Harmar, Ward 0, District 1"}}, {"type": "Feature", "geometry": {"type": "Point", "coordinates": [-79.8201321488772, 40.5424575538552]}, "properties": {"id": 128, "data": null, "appid": 15128, "title": "Harmar Twp Muni Bldg 1St Floor", "detail": "701 Freeport Rd, Cheswick, PA 15024-1205", "apptype": "Polling Places", "description": "Harmar, Ward 0, District 2"}}, {"type": "Feature", "geometry": {"type": "Point", "coordinates": [-79.729318127118, 40.6171681496201]}, "properties": {"id": 129, "data": null, "appid": 15129, "title": "Highland Community Center Room 1St Fl", "detail": "  California @ Pacific Ave, Natrona Heights, PA 15065", "apptype": "Polling Places", "description": "Harrison, Ward 1, District 1"}}, {"type": "Feature", "geometry": {"type": "Point", "coordinates": [-79.7339999457039, 40.6177860284341]}, "properties": {"id": 130, "data": null, "appid": 15130, "title": "Wwjd Associates", "detail": "1329 Freeport Rd, Natrona Heights, PA 15065-1134", "apptype": "Polling Places", "description": "Harrison, Ward 1, District 2"}}, {"type": "Feature", "geometry": {"type": "Point", "coordinates": [-79.7331507176358, 40.6215527390902]}, "properties": {"id": 131, "data": null, "appid": 15131, "title": "Hilltop Hose Company #3", "detail": "1501 Cambridge St, Natrona Heights, PA 15065", "apptype": "Polling Places", "description": "Harrison, Ward 1, District 3"}}, {"type": "Feature", "geometry": {"type": "Point", "coordinates": [-79.729318127118, 40.6171681496201]}, "properties": {"id": 132, "data": null, "appid": 15132, "title": "Highland Community Center Room 1St Fl", "detail": "1350 Broadview Blvd, Natrona Heights, PA 15065", "apptype": "Polling Places", "description": "Harrison, Ward 2, District 1"}}, {"type": "Feature", "geometry": {"type": "Point", "coordinates": [-79.700326689375, 40.6554595143606]}, "properties": {"id": 133, "data": null, "appid": 15133, "title": "Harrison Hills V.F.C. #4", "detail": "5300 Freeport Rd, Natrona Heights, PA 15065-2815", "apptype": "Polling Places", "description": "Harrison, Ward 3, District 1"}}, {"type": "Feature", "geometry": {"type": "Point", "coordinates": [-79.700326689375, 40.6554595143606]}, "properties": {"id": 134, "data": null, "appid": 15134, "title": "Harrison Hills V.F.C. #4", "detail": "5300 Freeport Rd, Natrona Heights, PA 15065-2815", "apptype": "Polling Places", "description": "Harrison, Ward 4, District 2"}}, {"type": "Feature", "geometry": {"type": "Point", "coordinates": [-79.7331507176358, 40.6215527390902]}, "properties": {"id": 135, "data": null, "appid": 15135, "title": "Hilltop Hose Company #3", "detail": "1501 Cambridge St, Natrona Heights, PA 15065", "apptype": "Polling Places", "description": "Harrison, Ward 5, District 2"}}, {"type": "Feature", "geometry": {"type": "Point", "coordinates": [-80.157381667222, 40.5262230683713]}, "properties": {"id": 136, "data": null, "appid": 15136, "title": "Sewickley Speak Easy", "detail": "17 Ohio River Blvd, Sewickley, PA 15143-2101", "apptype": "Polling Places", "description": "Haysville, Ward 0, District 1"}}, {"type": "Feature", "geometry": {"type": "Point", "coordinates": [-79.9589158482381, 40.2898848720808]}, "properties": {"id": 137, "data": null, "appid": 15137, "title": "Gill Hall Vfd", "detail": "1255 Gill Hall Rd, Jefferson Hills, PA 15025", "apptype": "Polling Places", "description": "Jefferson Hl, Ward 0, District 8"}}, {"type": "Feature", "geometry": {"type": "Point", "coordinates": [-80.1048705251271, 40.4798480244109]}, "properties": {"id": 138, "data": null, "appid": 15138, "title": "Kennedy Twp Municipal Bldg", "detail": "340 Forest Grove Rd, Coraopolis, PA 15108", "apptype": "Polling Places", "description": "Kennedy, Ward 0, District 1"}}, {"type": "Feature", "geometry": {"type": "Point", "coordinates": [-80.1048705251271, 40.4798480244109]}, "properties": {"id": 139, "data": null, "appid": 15139, "title": "Kennedy Twp Municipal Building", "detail": "340 Forest Grove Rd, Coraopolis, PA 15108", "apptype": "Polling Places", "description": "Kennedy, Ward 0, District 6"}}, {"type": "Feature", "geometry": {"type": "Point", "coordinates": [-80.2041177573386, 40.5764126435074]}, "properties": {"id": 140, "data": null, "appid": 15140, "title": "Health South Of Sewickley", "detail": "303 Camp Meeting Rd, Sewickley, PA 15143", "apptype": "Polling Places", "description": "Leet, Ward 0, District 2"}}, {"type": "Feature", "geometry": {"type": "Point", "coordinates": [-79.8594204770779, 40.3247816412747]}, "properties": {"id": 141, "data": null, "appid": 15141, "title": "Liberty Vfd", "detail": "900 Haslage St, Mckeesport, PA 15133", "apptype": "Polling Places", "description": "Liberty, Ward 0, District 2"}}, {"type": "Feature", "geometry": {"type": "Point", "coordinates": [-79.8708819500579, 40.2830124774838]}, "properties": {"id": 142, "data": null, "appid": 15142, "title": "Lincoln Boro Vol Memorial Hall", "detail": "4312 Liberty Way, Elizabeth, PA 15037-3033", "apptype": "Polling Places", "description": "Lincoln, Ward 0, District 1"}}, {"type": "Feature", "geometry": {"type": "Point", "coordinates": [-80.0875483034406, 40.6731436412947]}, "properties": {"id": 143, "data": null, "appid": 15143, "title": "Regional Learning Alliance", "detail": "1170 Freeport Rd, Mars, PA 16046-9452", "apptype": "Polling Places", "description": "Marshall, Ward 0, District 1"}}, {"type": "Feature", "geometry": {"type": "Point", "coordinates": [-80.0875351078302, 40.6733551301366]}, "properties": {"id": 144, "data": null, "appid": 15144, "title": "Regional Learning Alliance", "detail": "1170 Freeport Rd, Mars, PA 16046-9452", "apptype": "Polling Places", "description": "Marshall, Ward 0, District 5"}}, {"type": "Feature", "geometry": {"type": "Point", "coordinates": [-80.0195559107189, 40.5904604283929]}, "properties": {"id": 145, "data": null, "appid": 15145, "title": "Town Hall", "detail": "9955 Grubbs Rd, Wexford, PA 15090-9644", "apptype": "Polling Places", "description": "Mccandless, Ward 1, District 1"}}, {"type": "Feature", "geometry": {"type": "Point", "coordinates": [-80.0229642674765, 40.5849297287194]}, "properties": {"id": 146, "data": null, "appid": 15146, "title": "No Park Evangelical U P Ch-1St Floor", "detail": "600 Ingomar Rd, Wexford, PA 15090-9516", "apptype": "Polling Places", "description": "Mccandless, Ward 1, District 2"}}, {"type": "Feature", "geometry": {"type": "Point", "coordinates": [-80.042828183211, 40.595767559341]}, "properties": {"id": 147, "data": null, "appid": 15147, "title": "St Alexis School Hall", "detail": "10090 Old Perry Hwy, Wexford, PA 15090-9318", "apptype": "Polling Places", "description": "Mccandless, Ward 1, District 3"}}, {"type": "Feature", "geometry": {"type": "Point", "coordinates": [-80.042828183211, 40.595767559341]}, "properties": {"id": 148, "data": null, "appid": 15148, "title": "St Alexis Sch Hall", "detail": "10090 Old Perry Hwy, Wexford, PA 15090-9318", "apptype": "Polling Places", "description": "Mccandless, Ward 2, District 3"}}, {"type": "Feature", "geometry": {"type": "Point", "coordinates": [-80.0396658461583, 40.5564827953206]}, "properties": {"id": 149, "data": null, "appid": 15149, "title": "Northmont Up Church Lower Entrance", "detail": "8169 Perry Hwy, Pittsburgh, PA 15237-5213", "apptype": "Polling Places", "description": "Mccandless, Ward 3, District 1"}}, {"type": "Feature", "geometry": {"type": "Point", "coordinates": [-80.0528435380905, 40.5823556714811]}, "properties": {"id": 150, "data": null, "appid": 15150, "title": "Ingomar Elementary School", "detail": "602 Ingomar Rd, Wexford, PA 15090-9318", "apptype": "Polling Places", "description": "Mccandless, Ward 3, District 2"}}, {"type": "Feature", "geometry": {"type": "Point", "coordinates": [-80.0396658461583, 40.5564827953206]}, "properties": {"id": 151, "data": null, "appid": 15151, "title": "Northmont U P Ch Fellowship Hall", "detail": "8169 Perry Hwy, Pittsburgh, PA 15237-5213", "apptype": "Polling Places", "description": "Mccandless, Ward 4, District 1"}}, {"type": "Feature", "geometry": {"type": "Point", "coordinates": [-80.041558728512, 40.5645634823225]}, "properties": {"id": 152, "data": null, "appid": 15152, "title": "Bethany Baptist Church", "detail": "8713 Harmony Pkwy, Pittsburgh, PA 15237-4646", "apptype": "Polling Places", "description": "Mccandless, Ward 4, District 2"}}, {"type": "Feature", "geometry": {"type": "Point", "coordinates": [-80.0413686053187, 40.5647728274508]}, "properties": {"id": 153, "data": null, "appid": 15153, "title": "Pgh Christian Chinese Ch", "detail": "8711 Old Perry Hwy, Pittsburgh, PA 15237-4646", "apptype": "Polling Places", "description": "Mccandless, Ward 4, District 3"}}, {"type": "Feature", "geometry": {"type": "Point", "coordinates": [-80.0229642674765, 40.5849297287194]}, "properties": {"id": 154, "data": null, "appid": 15154, "title": "North Park Evan. U.P. Church", "detail": "600 Ingomar Rd, Wexford, PA 15090-9516", "apptype": "Polling Places", "description": "Mccandless, Ward 5, District 1"}}, {"type": "Feature", "geometry": {"type": "Point", "coordinates": [-80.03390314003, 40.5726410509797]}, "properties": {"id": 155, "data": null, "appid": 15155, "title": "St John'S Lutheran Ch Upper Lvl", "detail": "311 Cumberland Rd, Pittsburgh, PA 15237-5409", "apptype": "Polling Places", "description": "Mccandless, Ward 5, District 2"}}, {"type": "Feature", "geometry": {"type": "Point", "coordinates": [-80.0048238285198, 40.5676672777521]}, "properties": {"id": 156, "data": null, "appid": 15156, "title": "Memorial Park Church", "detail": "8800 Peebles Road Allison Park, Allison Park, PA 15101-2716", "apptype": "Polling Places", "description": "Mccandless, Ward 6, District 2"}}, {"type": "Feature", "geometry": {"type": "Point", "coordinates": [-80.0025559831479, 40.5740747872347]}, "properties": {"id": 157, "data": null, "appid": 15157, "title": "Hosack Elem Frt Ent Main Lobby", "detail": "9275 Peebles Road Allison Park, Allison Park, PA 15101-1926", "apptype": "Polling Places", "description": "Mccandless, Ward 6, District 3"}}, {"type": "Feature", "geometry": {"type": "Point", "coordinates": [-80.0048238285198, 40.5676672777521]}, "properties": {"id": 158, "data": null, "appid": 15158, "title": "Memorial Park Church", "detail": "8800 Peebles Road Allison Park, Allison Park, PA 15101-2716", "apptype": "Polling Places", "description": "Mccandless, Ward 7, District 1"}}, {"type": "Feature", "geometry": {"type": "Point", "coordinates": [-80.0048238285198, 40.5676672777521]}, "properties": {"id": 159, "data": null, "appid": 15159, "title": "Memorial Park Church", "detail": "8800 Peebles Road Allison Park, Allison Park, PA 15101-2716", "apptype": "Polling Places", "description": "Mccandless, Ward 7, District 2"}}, {"type": "Feature", "geometry": {"type": "Point", "coordinates": [-80.0020925456844, 40.5697058987481]}, "properties": {"id": 160, "data": null, "appid": 15160, "title": "North Park Baptist Church", "detail": "1600 Sample Rd, Allison Park, PA 15101-3250", "apptype": "Polling Places", "description": "Mccandless, Ward 7, District 3"}}, {"type": "Feature", "geometry": {"type": "Point", "coordinates": [-79.8663827537236, 40.3485189200657]}, "properties": {"id": 161, "data": null, "appid": 15161, "title": "St Martin De Porres", "detail": "803 Market St, Mckeesport, PA 15132-2730", "apptype": "Polling Places", "description": "Mckeesport, Ward 1, District 0"}}, {"type": "Feature", "geometry": {"type": "Point", "coordinates": [-79.8664990091015, 40.3485768401522]}, "properties": {"id": 162, "data": null, "appid": 15162, "title": "St Martin De Porres", "detail": "803 Market St, Mckeesport, PA 15132-2730", "apptype": "Polling Places", "description": "Mckeesport, Ward 2, District 0"}}, {"type": "Feature", "geometry": {"type": "Point", "coordinates": [-79.8589132412037, 40.3505783647654]}, "properties": {"id": 163, "data": null, "appid": 15163, "title": "Mckeesport Towers Com Room", "detail": "601 6Th St, Mckeesport, PA 15132-2308", "apptype": "Polling Places", "description": "Mckeesport, Ward 5, District 0"}}, {"type": "Feature", "geometry": {"type": "Point", "coordinates": [-79.8496670294989, 40.3475166642584]}, "properties": {"id": 164, "data": null, "appid": 15164, "title": "Concordia Lutheran Church", "detail": "908 Evans Ave, Mckeesport, PA 15132-2119", "apptype": "Polling Places", "description": "Mckeesport, Ward 6, District 2"}}, {"type": "Feature", "geometry": {"type": "Point", "coordinates": [-79.8580701090421, 40.3465286553343]}, "properties": {"id": 165, "data": null, "appid": 15165, "title": "First United Methodist Church", "detail": "1406 Cornell St, Mckeesport, PA 15132-4613", "apptype": "Polling Places", "description": "Mckeesport, Ward 7, District 1"}}, {"type": "Feature", "geometry": {"type": "Point", "coordinates": [-79.8496221339941, 40.3418293595616]}, "properties": {"id": 166, "data": null, "appid": 15166, "title": "#3 Engine House", "detail": "1604 Evans Ave, Mckeesport, PA 15132-4948", "apptype": "Polling Places", "description": "Mckeesport, Ward 7, District 3"}}, {"type": "Feature", "geometry": {"type": "Point", "coordinates": [-79.8425855551566, 40.3457534274893]}, "properties": {"id": 167, "data": null, "appid": 15167, "title": "St Pius Social Hall", "detail": "2911 Versailles Ave, Mckeesport, PA 15132-1919", "apptype": "Polling Places", "description": "Mckeesport, Ward 7, District 4"}}, {"type": "Feature", "geometry": {"type": "Point", "coordinates": [-79.8426113896411, 40.3456727460859]}, "properties": {"id": 168, "data": null, "appid": 15168, "title": "St Pius Social Hall", "detail": "2911 Versailles Ave, Mckeesport, PA 15132-1919", "apptype": "Polling Places", "description": "Mckeesport, Ward 7, District 5"}}, {"type": "Feature", "geometry": {"type": "Point", "coordinates": [-79.8496221339941, 40.3418293595616]}, "properties": {"id": 169, "data": null, "appid": 15169, "title": "#3 Engine House", "detail": "1604 Evans Ave, Mckeesport, PA 15132-4948", "apptype": "Polling Places", "description": "Mckeesport, Ward 7, District 7"}}, {"type": "Feature", "geometry": {"type": "Point", "coordinates": [-79.8425944140373, 40.3455387149915]}, "properties": {"id": 170, "data": null, "appid": 15170, "title": "St Pius Social Hall", "detail": "2911 Versailles Ave, Mckeesport, PA 15132-1919", "apptype": "Polling Places", "description": "Mckeesport, Ward 8, District 3"}}, {"type": "Feature", "geometry": {"type": "Point", "coordinates": [-79.8268507419813, 40.3544482595933]}, "properties": {"id": 171, "data": null, "appid": 15171, "title": "Church Of Christ", "detail": "947 Franklin St, Mckeesport, PA 15132-1417", "apptype": "Polling Places", "description": "Mckeesport, Ward 8, District 4"}}, {"type": "Feature", "geometry": {"type": "Point", "coordinates": [-79.8267383807668, 40.3545000993174]}, "properties": {"id": 172, "data": null, "appid": 15172, "title": "Church Of Christ", "detail": "947 Franklin St, Mckeesport, PA 15132-1417", "apptype": "Polling Places", "description": "Mckeesport, Ward 8, District 6"}}, {"type": "Feature", "geometry": {"type": "Point", "coordinates": [-79.8348570683531, 40.3255073395081]}, "properties": {"id": 173, "data": null, "appid": 15173, "title": "Maplewood Kids Inc Gym", "detail": "3915 Maplewood St, Mckeesport, PA 15132-7321", "apptype": "Polling Places", "description": "Mckeesport, Ward 12, District 1"}}, {"type": "Feature", "geometry": {"type": "Point", "coordinates": [-80.0564873778633, 40.4735938235506]}, "properties": {"id": 174, "data": null, "appid": 15174, "title": "Holy Ghost School", "detail": "224 Helen St, Mc Kees Rocks, PA 15136-2714", "apptype": "Polling Places", "description": "Mckees Rocks, Ward 2, District 1"}}, {"type": "Feature", "geometry": {"type": "Point", "coordinates": [-80.0565275818901, 40.4735266952799]}, "properties": {"id": 175, "data": null, "appid": 15175, "title": "Holy Ghost School", "detail": "225 Olivia St, Mc Kees Rocks, PA 15136-3246", "apptype": "Polling Places", "description": "Mckees Rocks, Ward 2, District 2"}}, {"type": "Feature", "geometry": {"type": "Point", "coordinates": [-80.0726600797236, 40.4652011621043]}, "properties": {"id": 176, "data": null, "appid": 15176, "title": "Vfw Vesley Post 418", "detail": "1242 Chartiers Ave, Mc Kees Rocks, PA 15136-3641", "apptype": "Polling Places", "description": "Mckees Rocks, Ward 3, District 3"}}, {"type": "Feature", "geometry": {"type": "Point", "coordinates": [-79.972557124953, 40.4808981517802]}, "properties": {"id": 177, "data": null, "appid": 15177, "title": "Millvale Community Center", "detail": "416 Lincoln Ave, Millvale, PA 15209-2647", "apptype": "Polling Places", "description": "Millvale, Ward 0, District 1"}}, {"type": "Feature", "geometry": {"type": "Point", "coordinates": [-79.9726208742612, 40.4809203354204]}, "properties": {"id": 178, "data": null, "appid": 15178, "title": "Millvale Community Center", "detail": "416 Lincoln Ave, Millvale, PA 15209-2647", "apptype": "Polling Places", "description": "Millvale, Ward 0, District 3"}}, {"type": "Feature", "geometry": {"type": "Point", "coordinates": [-79.7670044525936, 40.4102295410334]}, "properties": {"id": 179, "data": null, "appid": 15179, "title": "New Hope Presby Church", "detail": "2225 Grandview Ave, Monroeville, PA 15146-4209", "apptype": "Polling Places", "description": "Monroeville, Ward 1, District 2"}}, {"type": "Feature", "geometry": {"type": "Point", "coordinates": [-79.7514189028654, 40.4115285658593]}, "properties": {"id": 180, "data": null, "appid": 15180, "title": "Crossroads Pres Ch Fellowship Hl", "detail": "2310 Haymaker Rd, Monroeville, PA 15146", "apptype": "Polling Places", "description": "Monroeville, Ward 2, District 1"}}, {"type": "Feature", "geometry": {"type": "Point", "coordinates": [-79.7514189028654, 40.4115285658593]}, "properties": {"id": 181, "data": null, "appid": 15181, "title": "Cross Roads Presbyterian Church", "detail": "2310 Haymaker Rd, Monroeville, PA 15146", "apptype": "Polling Places", "description": "Monroeville, Ward 2, District 2"}}, {"type": "Feature", "geometry": {"type": "Point", "coordinates": [-79.7479566284046, 40.4254459532105]}, "properties": {"id": 182, "data": null, "appid": 15182, "title": "North American Martyrs School", "detail": "2526 Haymaker Rd, Monroeville, PA 15146-3508", "apptype": "Polling Places", "description": "Monroeville, Ward 2, District 3"}}, {"type": "Feature", "geometry": {"type": "Point", "coordinates": [-79.761236076491, 40.4537571860118]}, "properties": {"id": 183, "data": null, "appid": 15183, "title": "Resurrection Church", "detail": "455 Center Rd, Monroeville, PA 15146-1038", "apptype": "Polling Places", "description": "Monroeville, Ward 3, District 2"}}, {"type": "Feature", "geometry": {"type": "Point", "coordinates": [-79.761236076491, 40.4537571860118]}, "properties": {"id": 184, "data": null, "appid": 15184, "title": "Resurrection Church 1St Floor", "detail": "455 Center Rd, Monroeville, PA 15146-1038", "apptype": "Polling Places", "description": "Monroeville, Ward 3, District 3"}}, {"type": "Feature", "geometry": {"type": "Point", "coordinates": [-79.735131022444, 40.4296755229086]}, "properties": {"id": 185, "data": null, "appid": 15185, "title": "Grace Baptist Church Rm 13", "detail": "4518 Northern Pike, Monroeville, PA 15146-2832", "apptype": "Polling Places", "description": "Monroeville, Ward 4, District 1"}}, {"type": "Feature", "geometry": {"type": "Point", "coordinates": [-79.7351535743813, 40.4295375771137]}, "properties": {"id": 186, "data": null, "appid": 15186, "title": "Grace Baptist Church Rm 13", "detail": "4518 Northern Pike, Monroeville, PA 15146-2832", "apptype": "Polling Places", "description": "Monroeville, Ward 4, District 2"}}, {"type": "Feature", "geometry": {"type": "Point", "coordinates": [-79.7880184635791, 40.4258125730006]}, "properties": {"id": 187, "data": null, "appid": 15187, "title": "Monroeville Vol Fire Co #1", "detail": "122 Elmwood St, Monroeville, PA 15146-4032", "apptype": "Polling Places", "description": "Monroeville, Ward 5, District 1"}}, {"type": "Feature", "geometry": {"type": "Point", "coordinates": [-79.7880184635791, 40.4258125730006]}, "properties": {"id": 188, "data": null, "appid": 15188, "title": "Monroeville Vol Fire Co. #1", "detail": "122 Elmwood St, Monroeville, PA 15146-4032", "apptype": "Polling Places", "description": "Monroeville, Ward 5, District 2"}}, {"type": "Feature", "geometry": {"type": "Point", "coordinates": [-79.7880184635791, 40.4258125730006]}, "properties": {"id": 189, "data": null, "appid": 15189, "title": "Monroeville Volunteer Fire Co. #1", "detail": "122 Elmwood St, Monroeville, PA 15146-4032", "apptype": "Polling Places", "description": "Monroeville, Ward 5, District 4"}}, {"type": "Feature", "geometry": {"type": "Point", "coordinates": [-79.7975984720449, 40.4202818441722]}, "properties": {"id": 190, "data": null, "appid": 15190, "title": "Hillcrest United Presby Church", "detail": "1622 James St, Monroeville, PA 15146", "apptype": "Polling Places", "description": "Monroeville, Ward 6, District 1"}}, {"type": "Feature", "geometry": {"type": "Point", "coordinates": [-79.797796024595, 40.4203458591137]}, "properties": {"id": 191, "data": null, "appid": 15191, "title": "Hillcrest United Presby Church", "detail": "1622 James St, Monroeville, PA 15146", "apptype": "Polling Places", "description": "Monroeville, Ward 6, District 2"}}, {"type": "Feature", "geometry": {"type": "Point", "coordinates": [-79.7791501793202, 40.4360501159983]}, "properties": {"id": 192, "data": null, "appid": 15192, "title": "Boro Bldg Council Chambers", "detail": "2700 Monroeville Blvd, Monroeville, PA 15146-2304", "apptype": "Polling Places", "description": "Monroeville, Ward 6, District 3"}}, {"type": "Feature", "geometry": {"type": "Point", "coordinates": [-79.7791501793202, 40.4360501159983]}, "properties": {"id": 193, "data": null, "appid": 15193, "title": "Boro Bldg Council Chambers", "detail": "2700 Monroeville Blvd, Monroeville, PA 15146-2304", "apptype": "Polling Places", "description": "Monroeville, Ward 6, District 4"}}, {"type": "Feature", "geometry": {"type": "Point", "coordinates": [-79.7820687048131, 40.4481748222599]}, "properties": {"id": 194, "data": null, "appid": 15194, "title": "Monroeville Vol Fire #6", "detail": "600 Garden City Dr, Monroeville, PA 15146", "apptype": "Polling Places", "description": "Monroeville, Ward 7, District 1"}}, {"type": "Feature", "geometry": {"type": "Point", "coordinates": [-79.7820687048131, 40.4481748222599]}, "properties": {"id": 195, "data": null, "appid": 15195, "title": "Monroeville Vol Fire #6", "detail": "600 Garden City Dr, Monroeville, PA 15146", "apptype": "Polling Places", "description": "Monroeville, Ward 7, District 2"}}, {"type": "Feature", "geometry": {"type": "Point", "coordinates": [-79.7717237600772, 40.4465353509265]}, "properties": {"id": 196, "data": null, "appid": 15196, "title": "Evergreen School", "detail": "3831 Evergreen Dr, Monroeville, PA 15146-1219", "apptype": "Polling Places", "description": "Monroeville, Ward 7, District 3"}}, {"type": "Feature", "geometry": {"type": "Point", "coordinates": [-80.1766674453762, 40.4998068660009]}, "properties": {"id": 197, "data": null, "appid": 15197, "title": "Brooks Elem Cafe Rr Park Lot Ent", "detail": "1720 Hassam Rd, Coraopolis, PA 15108-3251", "apptype": "Polling Places", "description": "Moon, Ward 0, District 8"}}, {"type": "Feature", "geometry": {"type": "Point", "coordinates": [-80.2187754222582, 40.5306041753849]}, "properties": {"id": 198, "data": null, "appid": 15198, "title": "Allard School", "detail": "170 Shafer Rd, Coraopolis, PA 15108-1093", "apptype": "Polling Places", "description": "Moon, Ward 0, District 11"}}, {"type": "Feature", "geometry": {"type": "Point", "coordinates": [-80.1766674453762, 40.4998068660009]}, "properties": {"id": 199, "data": null, "appid": 15199, "title": "Brooks Elem Cafe Rr Park Lot Ent", "detail": "1720 Hassam Rd, Coraopolis, PA 15108-3251", "apptype": "Polling Places", "description": "Moon, Ward 0, District 12"}}, {"type": "Feature", "geometry": {"type": "Point", "coordinates": [-80.2187701733377, 40.5304609475545]}, "properties": {"id": 200, "data": null, "appid": 15200, "title": "Allard School", "detail": "170 Shafer Rd, Coraopolis, PA 15108-1093", "apptype": "Polling Places", "description": "Moon, Ward 0, District 13"}}, {"type": "Feature", "geometry": {"type": "Point", "coordinates": [-80.0746609671211, 40.3760678424929]}, "properties": {"id": 201, "data": null, "appid": 15201, "title": "Temple Emanuel", "detail": "1250 Bower Hill Rd, Pittsburgh, PA 15243-1304", "apptype": "Polling Places", "description": "Mt Lebanon, Ward 2, District 6"}}, {"type": "Feature", "geometry": {"type": "Point", "coordinates": [-80.0747731863244, 40.3759267994883]}, "properties": {"id": 202, "data": null, "appid": 15202, "title": "Hootver Elementary School Grd Level Ent", "detail": "37 Robb Hollow Rd, Pittsburgh, PA 15243-1304", "apptype": "Polling Places", "description": "Mt Lebanon, Ward 2, District 7"}}, {"type": "Feature", "geometry": {"type": "Point", "coordinates": [-80.0392714775755, 40.3630332311654]}, "properties": {"id": 203, "data": null, "appid": 15203, "title": "Foster School Gym", "detail": "700 Vermont Ave, Pittsburgh, PA 15234-1220", "apptype": "Polling Places", "description": "Mt Lebanon, Ward 3, District 1"}}, {"type": "Feature", "geometry": {"type": "Point", "coordinates": [-80.0392714775755, 40.3630332311654]}, "properties": {"id": 204, "data": null, "appid": 15204, "title": "Foster School Lunch Room", "detail": "700 Vermont Ave, Pittsburgh, PA 15234-1220", "apptype": "Polling Places", "description": "Mt Lebanon, Ward 3, District 2"}}, {"type": "Feature", "geometry": {"type": "Point", "coordinates": [-80.0392714775755, 40.3630332311654]}, "properties": {"id": 205, "data": null, "appid": 15205, "title": "Foster School Lunch Room", "detail": "700 Vermont Ave, Pittsburgh, PA 15234-1220", "apptype": "Polling Places", "description": "Mt Lebanon, Ward 3, District 3"}}, {"type": "Feature", "geometry": {"type": "Point", "coordinates": [-80.0392714775755, 40.3630332311654]}, "properties": {"id": 206, "data": null, "appid": 15206, "title": "Foster School Gym", "detail": "700 Vermont Ave, Pittsburgh, PA 15234-1220", "apptype": "Polling Places", "description": "Mt Lebanon, Ward 3, District 4"}}, {"type": "Feature", "geometry": {"type": "Point", "coordinates": [-80.0452661069755, 40.3770074186551]}, "properties": {"id": 207, "data": null, "appid": 15207, "title": "Mellon Middle Sch. Multi Purp", "detail": "11 Castle Shannon Blvd, Mt Lebanon, PA 15228-2202", "apptype": "Polling Places", "description": "Mt Lebanon, Ward 3, District 5"}}, {"type": "Feature", "geometry": {"type": "Point", "coordinates": [-80.0452661069755, 40.3770074186551]}, "properties": {"id": 208, "data": null, "appid": 15208, "title": "Mellon Middle Sch. Multi Purp", "detail": "11 Castle Shannon Blvd, Mt Lebanon, PA 15228-2202", "apptype": "Polling Places", "description": "Mt Lebanon, Ward 3, District 6"}}, {"type": "Feature", "geometry": {"type": "Point", "coordinates": [-80.0392714775755, 40.3630332311654]}, "properties": {"id": 209, "data": null, "appid": 15209, "title": "Foster School Gym", "detail": "700 Vermont Ave, Pittsburgh, PA 15234-1220", "apptype": "Polling Places", "description": "Mt Lebanon, Ward 3, District 7"}}, {"type": "Feature", "geometry": {"type": "Point", "coordinates": [-80.0444263216588, 40.3782404143314]}, "properties": {"id": 210, "data": null, "appid": 15210, "title": "Washington Public School Gym", "detail": "735 Washington Rd, Mt Lebanon, PA 15228-2001", "apptype": "Polling Places", "description": "Mt Lebanon, Ward 4, District 1"}}, {"type": "Feature", "geometry": {"type": "Point", "coordinates": [-80.0444263216588, 40.3782404143314]}, "properties": {"id": 211, "data": null, "appid": 15211, "title": "Washington Public School Gym", "detail": "735 Washington Rd, Mt Lebanon, PA 15228-2001", "apptype": "Polling Places", "description": "Mt Lebanon, Ward 4, District 2"}}, {"type": "Feature", "geometry": {"type": "Point", "coordinates": [-80.0310095116894, 40.3753393626639]}, "properties": {"id": 212, "data": null, "appid": 15212, "title": "Howe School Multi Purpose Rm #6", "detail": "400 Broadmoor Ave, Mt Lebanon, PA 15228-2525", "apptype": "Polling Places", "description": "Mt Lebanon, Ward 4, District 3"}}, {"type": "Feature", "geometry": {"type": "Point", "coordinates": [-80.0310095116894, 40.3753393626639]}, "properties": {"id": 213, "data": null, "appid": 15213, "title": "Howe School Gym", "detail": "400 Broadmoor Ave, Mt Lebanon, PA 15228-2525", "apptype": "Polling Places", "description": "Mt Lebanon, Ward 4, District 4"}}, {"type": "Feature", "geometry": {"type": "Point", "coordinates": [-80.0310095116894, 40.3753393626639]}, "properties": {"id": 214, "data": null, "appid": 15214, "title": "Howe School Art Room #8", "detail": "400 Broadmoor Ave, Mt Lebanon, PA 15228-2525", "apptype": "Polling Places", "description": "Mt Lebanon, Ward 4, District 5"}}, {"type": "Feature", "geometry": {"type": "Point", "coordinates": [-80.0310095116894, 40.3753393626639]}, "properties": {"id": 215, "data": null, "appid": 15215, "title": "Howe School Music Rm #12", "detail": "400 Broadmoor Ave, Mt Lebanon, PA 15228-2525", "apptype": "Polling Places", "description": "Mt Lebanon, Ward 4, District 6"}}, {"type": "Feature", "geometry": {"type": "Point", "coordinates": [-80.0310095116894, 40.3753393626639]}, "properties": {"id": 216, "data": null, "appid": 15216, "title": "Howe School Gym", "detail": "400 Broadmoor Ave, Mt Lebanon, PA 15228-2525", "apptype": "Polling Places", "description": "Mt Lebanon, Ward 4, District 7"}}, {"type": "Feature", "geometry": {"type": "Point", "coordinates": [-80.0557744008676, 40.374133423942]}, "properties": {"id": 217, "data": null, "appid": 15217, "title": "Mt Lebanon Rec Center", "detail": "900 Cedar Blvd, Mt Lebanon, PA 15228-1100", "apptype": "Polling Places", "description": "Mt Lebanon, Ward 5, District 4"}}, {"type": "Feature", "geometry": {"type": "Point", "coordinates": [-80.0557744008676, 40.374133423942]}, "properties": {"id": 218, "data": null, "appid": 15218, "title": "Mt Lebanon Rec Center", "detail": "900 Cedar Blvd, Mt Lebanon, PA 15228-1100", "apptype": "Polling Places", "description": "Mt Lebanon, Ward 5, District 6"}}, {"type": "Feature", "geometry": {"type": "Point", "coordinates": [-80.0557744008676, 40.374133423942]}, "properties": {"id": 219, "data": null, "appid": 15219, "title": "Mt Lebanon Rec Center", "detail": "900 Cedar Blvd, Mt Lebanon, PA 15228-1100", "apptype": "Polling Places", "description": "Mt Lebanon, Ward 5, District 7"}}, {"type": "Feature", "geometry": {"type": "Point", "coordinates": [-79.9886558773867, 40.4128451871198]}, "properties": {"id": 220, "data": null, "appid": 15220, "title": "Pgh Christian Fellowship, Old Thr", "detail": "407 Brownsville Rd, Mt Oliver, PA 15210-2279", "apptype": "Polling Places", "description": "Mt Oliver, Ward 0, District 2"}}, {"type": "Feature", "geometry": {"type": "Point", "coordinates": [-79.9899829306022, 40.4104676871332]}, "properties": {"id": 221, "data": null, "appid": 15221, "title": "Trinity Lutheran Church", "detail": "601 Brownsville Rd, Mt Oliver, PA 15210-2343", "apptype": "Polling Places", "description": "Mt Oliver, Ward 0, District 4"}}, {"type": "Feature", "geometry": {"type": "Point", "coordinates": [-79.8904527637606, 40.4043824424917]}, "properties": {"id": 222, "data": null, "appid": 15222, "title": "Munhall #5  Vfd", "detail": "1817 Whitaker Way, Munhall, PA 15120-2136", "apptype": "Polling Places", "description": "Munhall, Ward 0, District 1"}}, {"type": "Feature", "geometry": {"type": "Point", "coordinates": [-79.9029506827054, 40.4070127189795]}, "properties": {"id": 223, "data": null, "appid": 15223, "title": "Carnegie Library Of Homestead", "detail": "510 10Th Ave, Munhall, PA 15120-1910", "apptype": "Polling Places", "description": "Munhall, Ward 0, District 2"}}, {"type": "Feature", "geometry": {"type": "Point", "coordinates": [-79.9024804479014, 40.3863614554856]}, "properties": {"id": 224, "data": null, "appid": 15224, "title": "#4 Fire House- Downstairs", "detail": "3401 Main St, Munhall, PA 15120", "apptype": "Polling Places", "description": "Munhall, Ward 0, District 6"}}, {"type": "Feature", "geometry": {"type": "Point", "coordinates": [-79.9024804479014, 40.3863614554856]}, "properties": {"id": 225, "data": null, "appid": 15225, "title": "#4 Firehouse (Downstairs)", "detail": "3401 Main St, Munhall, PA 15120-3258", "apptype": "Polling Places", "description": "Munhall, Ward 0, District 7"}}, {"type": "Feature", "geometry": {"type": "Point", "coordinates": [-79.9067616321809, 40.3810770302244]}, "properties": {"id": 226, "data": null, "appid": 15226, "title": "Messiah Luthern Ch-Parlor Rm", "detail": "4300 Main St, Munhall, PA 15120-3362", "apptype": "Polling Places", "description": "Munhall, Ward 0, District 11"}}, {"type": "Feature", "geometry": {"type": "Point", "coordinates": [-79.8959613701472, 40.3823342677533]}, "properties": {"id": 227, "data": null, "appid": 15227, "title": "St.Elias Byzantin Church", "detail": "4200 Homestead Duquesne Rd, Munhall, PA 15120-3545", "apptype": "Polling Places", "description": "Munhall, Ward 0, District 12"}}, {"type": "Feature", "geometry": {"type": "Point", "coordinates": [-80.1293913705734, 40.5126539292305]}, "properties": {"id": 228, "data": null, "appid": 15228, "title": "Neville Island Vfd", "detail": "5300 Grand Ave, Neville Island, PA 15225-1351", "apptype": "Polling Places", "description": "Neville, Ward 1, District 0"}}, {"type": "Feature", "geometry": {"type": "Point", "coordinates": [-80.1293913705734, 40.5126539292305]}, "properties": {"id": 229, "data": null, "appid": 15229, "title": "Neville Island V.F.D. 1St Fl", "detail": "5300 Grand Ave, Neville Island, PA 15225-1351", "apptype": "Polling Places", "description": "Neville, Ward 2, District 0"}}, {"type": "Feature", "geometry": {"type": "Point", "coordinates": [-80.1293913705734, 40.5126539292305]}, "properties": {"id": 230, "data": null, "appid": 15230, "title": "Neville Island V.F.D. 1St Fl", "detail": "5300 Grand Ave, Neville Island, PA 15225-1351", "apptype": "Polling Places", "description": "Neville, Ward 3, District 0"}}, {"type": "Feature", "geometry": {"type": "Point", "coordinates": [-79.8451666391375, 40.4051392316485]}, "properties": {"id": 231, "data": null, "appid": 15231, "title": "North Braddock Vfd", "detail": "1318 Wolfe Ave, Braddock, PA 15104-2718", "apptype": "Polling Places", "description": "N Braddock, Ward 1, District 1"}}, {"type": "Feature", "geometry": {"type": "Point", "coordinates": [-79.8452531695428, 40.4051144228238]}, "properties": {"id": 232, "data": null, "appid": 15232, "title": "North Braddock Vfd", "detail": "1318 Wolfe Ave, Braddock, PA 15104-2718", "apptype": "Polling Places", "description": "N Braddock, Ward 1, District 2"}}, {"type": "Feature", "geometry": {"type": "Point", "coordinates": [-79.845387091519, 40.4050845823509]}, "properties": {"id": 233, "data": null, "appid": 15233, "title": "North Braddock Vfd", "detail": "1318 Wolfe Ave, Braddock, PA 15104-2718", "apptype": "Polling Places", "description": "N Braddock, Ward 1, District 3"}}, {"type": "Feature", "geometry": {"type": "Point", "coordinates": [-79.864200210824, 40.4050363162927]}, "properties": {"id": 234, "data": null, "appid": 15234, "title": "General Braddock Towers", "detail": "620 6Th St, Braddock, PA 15104-2341", "apptype": "Polling Places", "description": "N Braddock, Ward 3, District 1"}}, {"type": "Feature", "geometry": {"type": "Point", "coordinates": [-79.864032755512, 40.4053327381243]}, "properties": {"id": 235, "data": null, "appid": 15235, "title": "General Braddock Towers", "detail": "620 6Th St, Braddock, PA 15104-2221", "apptype": "Polling Places", "description": "N Braddock, Ward 3, District 2"}}, {"type": "Feature", "geometry": {"type": "Point", "coordinates": [-80.2230865743744, 40.41608104289]}, "properties": {"id": 236, "data": null, "appid": 15236, "title": "Township Building Hall", "detail": "400 Branch Rd, Oakdale, PA 15071", "apptype": "Polling Places", "description": "N Fayette, Ward 0, District 1"}}, {"type": "Feature", "geometry": {"type": "Point", "coordinates": [-79.8334325380659, 40.4811520474854]}, "properties": {"id": 237, "data": null, "appid": 15237, "title": "Rolling Hills Church - Community Center", "detail": "120 Gernert Dr, Verona, PA 15147-3246", "apptype": "Polling Places", "description": "Penn Hills, Ward 3, District 1"}}, {"type": "Feature", "geometry": {"type": "Point", "coordinates": [-79.8291592560645, 40.5074721740421]}, "properties": {"id": 238, "data": null, "appid": 15238, "title": "Wm. Mckinley Citizens Ctr. Inc", "detail": "  Seventh & Center Sts., Verona, PA 15147", "apptype": "Polling Places", "description": "Penn Hills, Ward 8, District 2"}}, {"type": "Feature", "geometry": {"type": "Point", "coordinates": [-80.0239274580161, 40.632078615149]}, "properties": {"id": 239, "data": null, "appid": 15239, "title": "North Way Christian Community Gym", "detail": "12121 Perry Hwy, Wexford, PA 15090-8345", "apptype": "Polling Places", "description": "Pine, Ward 0, District 4"}}, {"type": "Feature", "geometry": {"type": "Point", "coordinates": [-80.0239274580161, 40.632078615149]}, "properties": {"id": 240, "data": null, "appid": 15240, "title": "North Way Christian Community Gym", "detail": "12121 Perry Hwy, Wexford, PA 15090-8345", "apptype": "Polling Places", "description": "Pine, Ward 0, District 5"}}, {"type": "Feature", "geometry": {"type": "Point", "coordinates": [-80.0668873950194, 40.6290276575026]}, "properties": {"id": 241, "data": null, "appid": 15241, "title": "Salem Un Methodist Ch", "detail": "350 Manor Rd, Wexford, PA 15090", "apptype": "Polling Places", "description": "Pine, Ward 0, District 7"}}, {"type": "Feature", "geometry": {"type": "Point", "coordinates": [-79.7760043547758, 40.4056473902187]}, "properties": {"id": 242, "data": null, "appid": 15242, "title": "Pitcairn Building I", "detail": "582 Sixth St, Pitcairn, PA 15140", "apptype": "Polling Places", "description": "Pitcairn, Ward 0, District 3"}}, {"type": "Feature", "geometry": {"type": "Point", "coordinates": [-79.990592655942, 40.440143071772]}, "properties": {"id": 243, "data": null, "appid": 15243, "title": "Epiphany Church", "detail": "1018 Centre Ave, Pittsburgh, PA 15219-2902", "apptype": "Polling Places", "description": "Pittsburgh, Ward 1, District 1"}}, {"type": "Feature", "geometry": {"type": "Point", "coordinates": [-79.9816492395003, 40.4476716801591]}, "properties": {"id": 244, "data": null, "appid": 15244, "title": "Front Ent - Mckelvy Sch Cafe Back Wall", "detail": "2055 Bedford Ave, Pittsburgh, PA 15219-3634", "apptype": "Polling Places", "description": "Pittsburgh, Ward 3, District 3"}}, {"type": "Feature", "geometry": {"type": "Point", "coordinates": [-79.9806087340147, 40.4445163988078]}, "properties": {"id": 245, "data": null, "appid": 15245, "title": "Ebenezer Baptist Church", "detail": "2001 Wylie Ave, Pittsburgh, PA 15219-3380", "apptype": "Polling Places", "description": "Pittsburgh, Ward 3, District 5"}}, {"type": "Feature", "geometry": {"type": "Point", "coordinates": [-79.9575742776757, 40.4387494988648]}, "properties": {"id": 246, "data": null, "appid": 15246, "title": "Engine Company No. 14", "detail": "259 Mckee Pl, Pittsburgh, PA 15213-3902", "apptype": "Polling Places", "description": "Pittsburgh, Ward 4, District 5"}}, {"type": "Feature", "geometry": {"type": "Point", "coordinates": [-79.9560640835831, 40.4447452663923]}, "properties": {"id": 247, "data": null, "appid": 15247, "title": "Soldiers & Sailors Memorial Hall", "detail": "4141 5Th Ave, Pittsburgh, PA 15213", "apptype": "Polling Places", "description": "Pittsburgh, Ward 4, District 7"}}, {"type": "Feature", "geometry": {"type": "Point", "coordinates": [-79.9526908777422, 40.4309849292794]}, "properties": {"id": 248, "data": null, "appid": 15248, "title": "St. Regis Church Hall", "detail": "3250 Parkview Ave, Pittsburgh, PA 15213", "apptype": "Polling Places", "description": "Pittsburgh, Ward 4, District 17"}}, {"type": "Feature", "geometry": {"type": "Point", "coordinates": [-79.9816492395003, 40.4476716801591]}, "properties": {"id": 249, "data": null, "appid": 15249, "title": "Front Entrance - Mckelvy Sch Cafeteria", "detail": "2055 Bedford Ave, Pittsburgh, PA 15219-3634", "apptype": "Polling Places", "description": "Pittsburgh, Ward 5, District 1"}}, {"type": "Feature", "geometry": {"type": "Point", "coordinates": [-79.9816492395003, 40.4476716801591]}, "properties": {"id": 250, "data": null, "appid": 15250, "title": "Front Entrance - Mckelvy Sch Cafeteria", "detail": "2055 Bedford Ave, Pittsburgh, PA 15219-3634", "apptype": "Polling Places", "description": "Pittsburgh, Ward 5, District 2"}}, {"type": "Feature", "geometry": {"type": "Point", "coordinates": [-79.9740486141903, 40.4446334801442]}, "properties": {"id": 251, "data": null, "appid": 15251, "title": "A. Leo Weil School", "detail": "2250 Centre Ave, Pittsburgh, PA 15219-6306", "apptype": "Polling Places", "description": "Pittsburgh, Ward 5, District 14"}}, {"type": "Feature", "geometry": {"type": "Point", "coordinates": [-79.96961781353, 40.4428114092733]}, "properties": {"id": 252, "data": null, "appid": 15252, "title": "Wadsworth Hall", "detail": "480 Oakhill Dr, Pittsburgh, PA 15213-2459", "apptype": "Polling Places", "description": "Pittsburgh, Ward 5, District 17"}}, {"type": "Feature", "geometry": {"type": "Point", "coordinates": [-79.9433565645921, 40.4480071218532]}, "properties": {"id": 253, "data": null, "appid": 15253, "title": "Ent Rodef Shalom Foyer First Floor", "detail": "4905 5Th Ave, Pittsburgh, PA 15213", "apptype": "Polling Places", "description": "Pittsburgh, Ward 7, District 1"}}, {"type": "Feature", "geometry": {"type": "Point", "coordinates": [-79.9381014866126, 40.4565549847836]}, "properties": {"id": 254, "data": null, "appid": 15254, "title": "Ent - 1St Un Meth Church Fellowship Hall", "detail": "5401 Centre Ave, Pittsburgh, PA 15232-1621", "apptype": "Polling Places", "description": "Pittsburgh, Ward 7, District 3"}}, {"type": "Feature", "geometry": {"type": "Point", "coordinates": [-79.9292887930219, 40.4503605058061]}, "properties": {"id": 255, "data": null, "appid": 15255, "title": "The Third Presbyterian Church", "detail": "5701 5Th Ave, Pittsburgh, PA 15232", "apptype": "Polling Places", "description": "Pittsburgh, Ward 7, District 6"}}, {"type": "Feature", "geometry": {"type": "Point", "coordinates": [-79.9336079629757, 40.4534880359858]}, "properties": {"id": 256, "data": null, "appid": 15256, "title": "Liberty School Gym", "detail": "601 Filbert St, Pittsburgh, PA 15232-1809", "apptype": "Polling Places", "description": "Pittsburgh, Ward 7, District 8"}}, {"type": "Feature", "geometry": {"type": "Point", "coordinates": [-79.9230200290706, 40.4571358689036]}, "properties": {"id": 257, "data": null, "appid": 15257, "title": "Sacred Heart Activities Bldg", "detail": "325 Emerson St, Pittsburgh, PA 15206-4201", "apptype": "Polling Places", "description": "Pittsburgh, Ward 7, District 10"}}, {"type": "Feature", "geometry": {"type": "Point", "coordinates": [-79.9425568744943, 40.4506407170106]}, "properties": {"id": 258, "data": null, "appid": 15258, "title": "First Unitarian Ch. Of Pgh.", "detail": "605 Morewood Ave, Pittsburgh, PA 15213-2909", "apptype": "Polling Places", "description": "Pittsburgh, Ward 7, District 13"}}, {"type": "Feature", "geometry": {"type": "Point", "coordinates": [-79.9425568744943, 40.4506407170106]}, "properties": {"id": 259, "data": null, "appid": 15259, "title": "First Unitarian Ch. Of Pgh.", "detail": "605 Morewood Ave, Pittsburgh, PA 15213-2909", "apptype": "Polling Places", "description": "Pittsburgh, Ward 7, District 14"}}, {"type": "Feature", "geometry": {"type": "Point", "coordinates": [-79.9535540726173, 40.4621083818631]}, "properties": {"id": 260, "data": null, "appid": 15260, "title": "Bloomfield Recreation Center", "detail": "408 Ella St, Bloomfield, PA 15224-1809", "apptype": "Polling Places", "description": "Pittsburgh, Ward 8, District 1"}}, {"type": "Feature", "geometry": {"type": "Point", "coordinates": [-79.9436943783218, 40.4570985486092]}, "properties": {"id": 261, "data": null, "appid": 15261, "title": "Mechanical Contractors Assoc", "detail": "5131 Cypress St, Pittsburgh, PA 15224-2208", "apptype": "Polling Places", "description": "Pittsburgh, Ward 8, District 4"}}, {"type": "Feature", "geometry": {"type": "Point", "coordinates": [-79.9444064581891, 40.4595159026952]}, "properties": {"id": 262, "data": null, "appid": 15262, "title": "Mckean Kia 1St Fl", "detail": "5001 Liberty Ave, Pittsburgh, PA 15224-2208", "apptype": "Polling Places", "description": "Pittsburgh, Ward 8, District 5"}}, {"type": "Feature", "geometry": {"type": "Point", "coordinates": [-79.9354901409162, 40.4622660196423]},