OBJECTID,Latitude,Longitude,StopID,Stop_name,Direction,WkdyService,SatService,SunService,Mode,Routes_ser,Community_Name,Community_Type,Full_Label
1,40.427446,-79.918799,E54470,TILBURY AVE OPP ALDERSON ST,Both,Yes,Yes,Yes,Bus,"65, 74",SQUIRREL HILL SOUTH,HOOD,Squirrel Hill South Neighborhood
2,40.443237,-79.89235,E54550,TRENTON AVE AT FRANKLIN AVE,Inbound,Yes,Yes,Yes,Bus,71C,WILKINSBURG,BOROUGH,Wilkinsburg Borough
3,40.445738,-79.891336,E54580,TRENTON AVE AT PENN AVE,Inbound,Yes,Yes,Yes,Bus,71C,WILKINSBURG,BOROUGH,Wilkinsburg Borough
4,40.445716,-79.89155,E54585,TRENTON AVE AT PENN AVE FS,Outbound,Yes,Yes,Yes,Bus,71C,WILKINSBURG,BOROUGH,Wilkinsburg Borough
5,40.441895,-79.892333,E54590,TRENTON AVE OPP REBECCA AVE NS,Inbound,Yes,No,No,Bus,71C,WILKINSBURG,BOROUGH,Wilkinsburg Borough
6,40.444056,-79.892056,E54600,TRENTON AVE AT SOUTH AVE,Inbound,Yes,No,No,Bus,71C,WILKINSBURG,BOROUGH,Wilkinsburg Borough
7,40.444325,-79.892127,E54610,TRENTON AVE AT SOUTH AVE,Outbound,Yes,No,No,Bus,71C,WILKINSBURG,BOROUGH,Wilkinsburg Borough
8,40.478163,-79.760811,E54855,UNITY TRESTLE RD AT #1049,Both,Yes,No,No,Bus,"77, P16",PLUM,BOROUGH,Plum Borough
9,40.484592,-79.767427,E54860,UNITY TRESTLE RD AT COLLEGE AVE,Both,Yes,No,No,Bus,"77, P16",PLUM,BOROUGH,Plum Borough
10,40.485513,-79.769154,E54870,UNITY TRESTLE RD AT JACKSON RD,Both,Yes,No,No,Bus,"77, P16",PLUM,BOROUGH,Plum Borough
11,40.491634,-79.784971,E54880,UNITY TRESTLE RD AT LEECHBURG RD,Both,Yes,No,No,Bus,"77, P16",PLUM,BOROUGH,Plum Borough
12,40.48981,-79.779929,E54900,UNITY TRESTLE RD AT EAST ALLEY NS,Both,Yes,No,No,Bus,"77, P16",PLUM,BOROUGH,Plum Borough
13,40.480989,-79.76419,E54940,UNITY TRESTLE RD AT #901,Both,Yes,No,No,Bus,"77, P16",PLUM,BOROUGH,Plum Borough
14,40.486434,-79.771591,E55000,UNITY TRESTLE RD OPP ASHLAND DR FS,Both,Yes,No,No,Bus,"77, P16",PLUM,BOROUGH,Plum Borough
15,40.490458,-79.783085,E55010,UNITY TRESTLE RD OPP UNIVERSAL RD,Both,Yes,No,No,Bus,"77, P16",PLUM,BOROUGH,Plum Borough
16,40.475116,-79.786667,E55020,UNIVERSAL RD AT AUSTIN ST,Outbound,Yes,No,No,Bus,P16,PENN HILLS,MUNICIPALI,Penn Hills Municipality
17,40.46126,-79.81268,E55025,UNIVERSAL RD AT COLLINS DR,Inbound,Yes,No,No,Bus,P16,PENN HILLS,MUNICIPALI,Penn Hills Municipality
18,40.466147,-79.824253,E55032,UNIVERSAL RD AT VOLUNTEER FIRE CO,Inbound,Yes,No,No,Bus,P16,PENN HILLS,MUNICIPALI,Penn Hills Municipality
19,40.460601,-79.811273,E55035,UNIVERSAL RD OPP FREY RD,Inbound,Yes,No,No,Bus,P16,PENN HILLS,MUNICIPALI,Penn Hills Municipality
20,40.46044,-79.811391,E55040,UNIVERSAL RD AT FREY RD,Outbound,Yes,No,No,Bus,P16,PENN HILLS,MUNICIPALI,Penn Hills Municipality
21,40.462244,-79.814603,E55045,UNIVERSAL RD AT GREENWAY DR,Inbound,Yes,No,No,Bus,P16,PENN HILLS,MUNICIPALI,Penn Hills Municipality
22,40.462157,-79.814767,E55050,UNIVERSAL RD AT WEBSTER DR,Outbound,Yes,No,No,Bus,P16,PENN HILLS,MUNICIPALI,Penn Hills Municipality
23,40.463356,-79.802575,E55065,UNIVERSAL RD AT JOSLYN DR,Inbound,Yes,No,No,Bus,P16,PENN HILLS,MUNICIPALI,Penn Hills Municipality
24,40.463061,-79.802703,E55070,UNIVERSAL RD AT JOSLYN DR,Outbound,Yes,No,No,Bus,P16,PENN HILLS,MUNICIPALI,Penn Hills Municipality
25,40.467649,-79.793398,E55080,UNIVERSAL RD AT MAIN ST,Outbound,Yes,No,No,Bus,P16,PENN HILLS,MUNICIPALI,Penn Hills Municipality
26,40.460301,-79.807083,E55090,UNIVERSAL RD AT #1048,Outbound,Yes,No,No,Bus,P16,PENN HILLS,MUNICIPALI,Penn Hills Municipality
27,40.466129,-79.822553,E55100,UNIVERSAL RD AT #150,Outbound,Yes,No,No,Bus,P16,PENN HILLS,MUNICIPALI,Penn Hills Municipality
28,40.477402,-79.785199,E55130,UNIVERSAL RD AT SALTSBURG RD,Outbound,Yes,No,No,Bus,P16,PENN HILLS,MUNICIPALI,Penn Hills Municipality
29,40.46083,-79.804667,E55135,UNIVERSAL RD AT STOTLER RD,Inbound,Yes,No,No,Bus,P16,PENN HILLS,MUNICIPALI,Penn Hills Municipality
30,40.460433,-79.807081,E55136,UNIVERSAL RD OPP #1048,Inbound,Yes,No,No,Bus,P16,PENN HILLS,MUNICIPALI,Penn Hills Municipality
31,40.460731,-79.804533,E55140,UNIVERSAL RD OPP STOTLER RD,Outbound,Yes,No,No,Bus,P16,PENN HILLS,MUNICIPALI,Penn Hills Municipality
32,40.463793,-79.818239,E55160,UNIVERSAL RD AT WEBSTER DR FS,Outbound,Yes,Yes,No,Bus,P16,PENN HILLS,MUNICIPALI,Penn Hills Municipality
33,40.461147,-79.812839,E55180,UNIVERSAL RD AT HAZEL RD FS,Outbound,Yes,Yes,No,Bus,P16,PENN HILLS,MUNICIPALI,Penn Hills Municipality
34,40.464548,-79.820372,E55190,UNIVERSAL RD OPP POPLAR RIDGE RD,Outbound,Yes,Yes,No,Bus,P16,PENN HILLS,MUNICIPALI,Penn Hills Municipality
35,40.460604,-79.889077,E55211,UPLAND ST AT BRUSHTON AVE,Inbound,Yes,Yes,No,Bus,74,HOMEWOOD NORTH,HOOD,Homewood North Neighborhood
36,40.461191,-79.891851,E55250,UPLAND ST AT #7310,Inbound,Yes,Yes,No,Bus,74,HOMEWOOD NORTH,HOOD,Homewood North Neighborhood
37,40.460755,-79.889996,E55260,UPLAND ST AT #7500,Inbound,Yes,No,No,Bus,74,HOMEWOOD NORTH,HOOD,Homewood North Neighborhood
38,40.478269,-79.899063,E55303,HIGHLAND DR OPP JOB CORPS DR,Both,Yes,Yes,Yes,Bus,74,LINCOLN-LEMINGTON-BELMAR,HOOD,Lincoln-Lemington-Belmar Neighborhood
39,40.477913,-79.899159,E55304,HIGHLAND DR AT JOB CORP DR FS,Both,Yes,Yes,Yes,Bus,74,LINCOLN-LEMINGTON-BELMAR,HOOD,Lincoln-Lemington-Belmar Neighborhood
40,40.472785,-79.888814,E55320,VERONA BLVD AT LINCOLN AVE,Inbound,Yes,Yes,Yes,Bus,P17,LINCOLN-LEMINGTON-BELMAR,HOOD,Lincoln-Lemington-Belmar Neighborhood
41,40.470486,-79.887536,E55330,VERONA BLVD AT RUNNETTE ST,Inbound,Yes,No,No,Bus,"79, P17",PENN HILLS,MUNICIPALI,Penn Hills Municipality
42,40.47088,-79.888403,E55340,VERONA BLVD AT #7278,Outbound,Yes,No,No,Bus,79,LINCOLN-LEMINGTON-BELMAR,HOOD,Lincoln-Lemington-Belmar Neighborhood
43,40.471,-79.888272,E55350,VERONA BLVD AT #7281,Inbound,Yes,No,No,Bus,"79, P17",LINCOLN-LEMINGTON-BELMAR,HOOD,Lincoln-Lemington-Belmar Neighborhood
44,40.501512,-79.837546,E55370,VERONA RD AT 2ND ST,Outbound,Yes,No,No,Bus,P78,PENN HILLS,MUNICIPALI,Penn Hills Municipality
45,40.477684,-79.842841,E55380,VERONA RD AT HUDSON ST,Inbound,Yes,No,No,Bus,P78,PENN HILLS,MUNICIPALI,Penn Hills Municipality
46,40.484971,-79.837547,E55410,VERONA RD AT ARTHUR DR,Inbound,Yes,No,No,Bus,P78,PENN HILLS,MUNICIPALI,Penn Hills Municipality
47,40.483958,-79.837319,E55420,VERONA RD AT BRINLEY DR,Outbound,Yes,No,No,Bus,P78,PENN HILLS,MUNICIPALI,Penn Hills Municipality
48,40.499027,-79.837629,E55450,VERONA RD AT ELLIOTT ST,Inbound,Yes,Yes,Yes,Bus,P78,PENN HILLS,MUNICIPALI,Penn Hills Municipality
49,40.490464,-79.836268,E55480,VERONA RD AT GALETON DR,Inbound,Yes,Yes,Yes,Bus,P78,PENN HILLS,MUNICIPALI,Penn Hills Municipality
50,40.490285,-79.83607,E55490,VERONA RD OPP GALETON DR,Outbound,Yes,Yes,Yes,Bus,P78,PENN HILLS,MUNICIPALI,Penn Hills Municipality
51,40.462054,-79.86599,E55495,VERONA RD AT GIANT EAGLE DRIVEWAY,Inbound,Yes,No,No,Bus,"79, P17",PENN HILLS,MUNICIPALI,Penn Hills Municipality
52,40.462145,-79.865565,E55498,GIANT EAGLE (VERONA RD) AT ENTRANCE,Both,Yes,No,No,Bus,79,PENN HILLS,MUNICIPALI,Penn Hills Municipality
53,40.463597,-79.865563,E55500,VERONA RD AT GRAHAM BLVD EXT,Inbound,Yes,No,No,Bus,"79, P17",PENN HILLS,MUNICIPALI,Penn Hills Municipality
54,40.481843,-79.838166,E55510,VERONA RD AT HOMESTEAD RD,Inbound,Yes,No,No,Bus,P78,PENN HILLS,MUNICIPALI,Penn Hills Municipality
55,40.479891,-79.839458,E55530,VERONA RD AT MAPLE AVE,Inbound,Yes,No,No,Bus,P78,PENN HILLS,MUNICIPALI,Penn Hills Municipality
56,40.501547,-79.837803,E55535,VERONA RD OPP 2ND ST,Inbound,Yes,No,No,Bus,P78,PENN HILLS,MUNICIPALI,Penn Hills Municipality
57,40.486651,-79.837446,E55550,VERONA RD AT POKETA RD,Inbound,Yes,No,No,Bus,P78,PENN HILLS,MUNICIPALI,Penn Hills Municipality
58,40.486375,-79.837255,E55560,VERONA RD AT POKETA RD,Outbound,Yes,No,No,Bus,P78,PENN HILLS,MUNICIPALI,Penn Hills Municipality
59,40.493362,-79.836355,E55570,VERONA RD AT QUINCY DR,Outbound,Yes,No,No,Bus,P78,PENN HILLS,MUNICIPALI,Penn Hills Municipality
60,40.496238,-79.836942,E55580,VERONA RD AT RAITHEL ST,Inbound,Yes,No,No,Bus,P78,PENN HILLS,MUNICIPALI,Penn Hills Municipality
61,40.496108,-79.836672,E55590,VERONA RD AT RAITHEL ST FS,Outbound,Yes,No,No,Bus,P78,PENN HILLS,MUNICIPALI,Penn Hills Municipality
62,40.478907,-79.840792,E55600,VERONA RD AT RANDOLPH LN,Inbound,Yes,No,No,Bus,P78,PENN HILLS,MUNICIPALI,Penn Hills Municipality
63,40.49356,-79.836635,E55610,VERONA RD AT RIVERSIDE RD,Inbound,Yes,No,No,Bus,P78,PENN HILLS,MUNICIPALI,Penn Hills Municipality
64,40.497467,-79.836994,E55620,VERONA RD AT RIVERVIEW DR,Inbound,Yes,Yes,Yes,Bus,P78,PENN HILLS,MUNICIPALI,Penn Hills Municipality
65,40.481591,-79.838049,E55630,VERONA RD AT ROSEDALE ST,Outbound,Yes,No,No,Bus,P78,PENN HILLS,MUNICIPALI,Penn Hills Municipality
66,40.499048,-79.837395,E55730,VERONA RD OPP ELLIOTT ST,Outbound,Yes,No,No,Bus,P78,PENN HILLS,MUNICIPALI,Penn Hills Municipality
67,40.463596,-79.865816,E55750,VERONA RD OPP GRAHAM BLVD EXT,Outbound,Yes,No,No,Bus,79,PENN HILLS,MUNICIPALI,Penn Hills Municipality
68,40.479698,-79.839405,E55780,VERONA RD OPP MAPLE AVE,Outbound,Yes,Yes,Yes,Bus,P78,PENN HILLS,MUNICIPALI,Penn Hills Municipality
69,40.478684,-79.840833,E55800,VERONA RD OPP RANDOLPH LN,Outbound,Yes,Yes,Yes,Bus,P78,PENN HILLS,MUNICIPALI,Penn Hills Municipality
70,40.497305,-79.836737,E55810,VERONA RD OPP RIVERVIEW DR,Outbound,Yes,Yes,Yes,Bus,P78,PENN HILLS,MUNICIPALI,Penn Hills Municipality
71,40.443222,-79.966196,E55855,WADSWORTH ST AT ROBINSON ST,Outbound,Yes,Yes,Yes,Bus,81,WEST OAKLAND,HOOD,West Oakland Neighborhood
72,40.443356,-79.966349,E55860,WADSWORTH ST AT ROBINSON ST FS,Inbound,Yes,Yes,Yes,Bus,81,TERRACE VILLAGE,HOOD,Terrace Village Neighborhood
73,40.443512,-79.881287,E55990,WALLACE AVE AT CENTER ST,Both,Yes,Yes,Yes,Bus,"67, 69, 79, P12, P67, P78",WILKINSBURG,BOROUGH,Wilkinsburg Borough
74,40.46358,-79.923764,E29057,HIGHLAND AVE AT STATION ST,Outbound,Yes,Yes,Yes,Bus,71B,EAST LIBERTY,HOOD,East Liberty Neighborhood
75,40.46479,-79.923422,E29070,HIGHLAND AVE AT RIPPEY ST,Inbound,Yes,Yes,Yes,Bus,71B,EAST LIBERTY,HOOD,East Liberty Neighborhood
76,40.435233,-79.883163,E14430,COAL ST OPP HUTCHINSON AVE,Inbound,Yes,Yes,Yes,Bus,61A,EDGEWOOD,BOROUGH,Edgewood Borough
77,40.460336,-79.924902,E29077,HIGHLAND AVE OPP BAUM BLVD,Outbound,Yes,Yes,Yes,Bus,71B,EAST LIBERTY,HOOD,East Liberty Neighborhood
78,40.438484,-79.881123,E14440,COAL ST AT REBECCA AVE,Inbound,Yes,Yes,Yes,Bus,61A,WILKINSBURG,BOROUGH,Wilkinsburg Borough
79,40.455045,-79.925214,E29105,HIGHLAND AVE OPP ELWOOD ST,Outbound,Yes,Yes,Yes,Bus,71B,SHADYSIDE,HOOD,Shadeyside Neighborhood
80,40.444153,-79.917915,E57490,WILKINS AVE AT BEECHWOOD BLVD,Both,Yes,Yes,Yes,Bus,"67, 69, 74",SQUIRREL HILL NORTH,HOOD,Squirrel Hill North Neighborhood
81,40.44014,-79.880271,E14450,COAL ST AT SOUTH AVE,Inbound,Yes,Yes,Yes,Bus,61A,WILKINSBURG,BOROUGH,Wilkinsburg Borough
82,40.444687,-79.929031,E57500,WILKINS AVE OPP BELLEROCK ST,Inbound,Yes,Yes,Yes,Bus,"67, 69",SQUIRREL HILL NORTH,HOOD,Squirrel Hill North Neighborhood
83,40.436515,-79.882326,E14480,COAL ST AT WALNUT ST FS,Inbound,Yes,Yes,Yes,Bus,61A,WILKINSBURG,BOROUGH,Wilkinsburg Borough
84,40.444621,-79.929356,E57510,WILKINS AVE AT BELLEROCK ST,Outbound,Yes,Yes,Yes,Bus,"67, 69",SQUIRREL HILL NORTH,HOOD,Squirrel Hill North Neighborhood
85,40.469808,-79.9211,E29130,HIGHLAND AVE AT STANTON AVE,Inbound,Yes,Yes,Yes,Bus,71B,HIGHLAND PARK,HOOD,Highland Park Neighborhood
86,40.437552,-79.881708,E14510,COAL ST OPP WOODWORTH ST,Inbound,Yes,Yes,Yes,Bus,61A,WILKINSBURG,BOROUGH,Wilkinsburg Borough
87,40.445197,-79.930612,E57540,WILKINS AVE AT FAIR OAKS ST,Outbound,Yes,Yes,Yes,Bus,"67, 69",SQUIRREL HILL NORTH,HOOD,Squirrel Hill North Neighborhood
88,40.469547,-79.921006,E29140,HIGHLAND AVE AT STANTON AVE,Outbound,Yes,Yes,Yes,Bus,"71B, 75",EAST LIBERTY,HOOD,East Liberty Neighborhood
89,40.468928,-79.938122,E15030,COLUMBO ST AT ATLANTIC AVE,Outbound,Yes,Yes,Yes,Bus,89,GARFIELD,HOOD,Garfield Neighborhood
90,40.444037,-79.923867,E57560,WILKINS AVE OPP MURRAY AVE,Inbound,Yes,Yes,Yes,Bus,"67, 69",SQUIRREL HILL NORTH,HOOD,Squirrel Hill North Neighborhood
91,40.465396,-79.92315,E29150,HIGHLAND AVE AT VINTAGE SENIOR CITIZEN CTR,Inbound,Yes,Yes,Yes,Bus,71B,EAST LIBERTY,HOOD,East Liberty Neighborhood
92,40.469053,-79.939173,E15050,COLUMBO ST AT PACIFIC AVE,Outbound,Yes,Yes,Yes,Bus,89,GARFIELD,HOOD,Garfield Neighborhood
93,40.443841,-79.924222,E57570,WILKINS AVE AT MURRAY AVE,Outbound,Yes,Yes,Yes,Bus,"67, 69",SQUIRREL HILL NORTH,HOOD,Squirrel Hill North Neighborhood
94,40.454201,-79.925453,E29160,HIGHLAND AVE AT WALNUT ST,Inbound,Yes,Yes,Yes,Bus,71B,SHADYSIDE,HOOD,Shadeyside Neighborhood
95,40.469104,-79.938966,E15060,COLUMBO ST AT PACIFIC AVE,Inbound,Yes,Yes,Yes,Bus,89,GARFIELD,HOOD,Garfield Neighborhood
96,40.444074,-79.925928,E57580,WILKINS AVE AT NEGLEY AVE,Inbound,Yes,Yes,Yes,Bus,"67, 69",SQUIRREL HILL NORTH,HOOD,Squirrel Hill North Neighborhood
97,40.454105,-79.925206,E29170,HIGHLAND AVE AT WALNUT ST,Outbound,Yes,Yes,Yes,Bus,71B,SHADYSIDE,HOOD,Shadeyside Neighborhood
98,40.469938,-79.940215,E15070,COLUMBO ST AT #5149,Inbound,Yes,Yes,Yes,Bus,89,GARFIELD,HOOD,Garfield Neighborhood
99,40.44395,-79.926125,E57590,WILKINS AVE AT NEGLEY AVE,Outbound,Yes,Yes,Yes,Bus,"67, 69",SQUIRREL HILL NORTH,HOOD,Squirrel Hill North Neighborhood
100,40.472568,-79.919832,E29180,HIGHLAND AVE AT WELLESLEY AVE,Inbound,Yes,Yes,Yes,Bus,71B,HIGHLAND PARK,HOOD,Highland Park Neighborhood
101,40.469976,-79.940381,E15080,COLUMBO ST AT #5134,Outbound,Yes,Yes,Yes,Bus,89,GARFIELD,HOOD,Garfield Neighborhood
102,40.445933,-79.914463,E57610,WILKINS AVE AT #6640,Both,Yes,Yes,Yes,Bus,"67, 69, 74",SQUIRREL HILL NORTH,HOOD,Squirrel Hill North Neighborhood
103,40.446305,-79.914338,E57620,WILKINS AVE AT #6647,Both,Yes,Yes,Yes,Bus,"67, 69, 74",POINT BREEZE,HOOD,Point Breese Neighborhood
104,40.443953,-79.920842,E57640,WILKINS AVE AT SHADY AVE FS,Both,Yes,Yes,Yes,Bus,"67, 69, 74",SQUIRREL HILL NORTH,HOOD,Squirrel Hill North Neighborhood
105,40.443786,-79.920182,E57650,WILKINS AVE AT SHADY AVE FS,Both,Yes,Yes,Yes,Bus,"67, 69, 74",SQUIRREL HILL NORTH,HOOD,Squirrel Hill North Neighborhood
106,40.444139,-79.927772,E57660,WILKINS AVE AT WIGHTMAN ST,Inbound,Yes,Yes,Yes,Bus,"67, 69",SQUIRREL HILL NORTH,HOOD,Squirrel Hill North Neighborhood
107,40.444052,-79.928153,E57670,WILKINS AVE AT WIGHTMAN ST,Outbound,Yes,Yes,Yes,Bus,"67, 69",SQUIRREL HILL NORTH,HOOD,Squirrel Hill North Neighborhood
108,40.443979,-79.92203,E57680,WILKINS AVE AT WOODLAND RD,Both,Yes,Yes,Yes,Bus,"67, 69, 74",SQUIRREL HILL NORTH,HOOD,Squirrel Hill North Neighborhood
109,40.446544,-79.912905,E57710,WILKINS AVE AT WORTH ST,Both,Yes,Yes,Yes,Bus,"67, 69, 74",SQUIRREL HILL NORTH,HOOD,Squirrel Hill North Neighborhood
110,40.445141,-79.930023,E57750,WILKINS AVE AT FAIR OAKS ST,Inbound,Yes,Yes,Yes,Bus,"67, 69",SQUIRREL HILL NORTH,HOOD,Squirrel Hill North Neighborhood
111,40.443805,-79.922234,E57770,WILKINS AVE OPP WOODLAND RD,Both,Yes,Yes,Yes,Bus,"67, 69, 74",SQUIRREL HILL NORTH,HOOD,Squirrel Hill North Neighborhood
112,40.446756,-79.912652,E57790,WILKINS AVE OPP WORTH ST,Both,Yes,Yes,Yes,Bus,"67, 69, 74",POINT BREEZE,HOOD,Point Breese Neighborhood
113,40.454001,-79.86702,E57940,WILNER DR AT BRACEY DR,Both,Yes,Yes,Yes,Bus,79,EAST HILLS,HOOD,East Hills Neighborhood
114,40.455084,-79.870972,E57950,WILNER DR AT EAST HILLS DR,Both,Yes,Yes,Yes,Bus,79,EAST HILLS,HOOD,East Hills Neighborhood
115,40.45277,-79.866909,E57960,WILNER DR AT ROBINSON BLVD,Both,Yes,Yes,Yes,Bus,79,EAST HILLS,HOOD,East Hills Neighborhood
116,40.452887,-79.866743,E57970,WILNER DR AT ROBINSON BLVD FS,Both,Yes,Yes,Yes,Bus,79,EAST HILLS,HOOD,East Hills Neighborhood
117,40.454245,-79.867941,E57980,WILNER DR AT #2202,Both,Yes,Yes,Yes,Bus,79,EAST HILLS,HOOD,East Hills Neighborhood
118,40.454226,-79.869127,E57990,WILNER DR AT #2278,Both,Yes,Yes,No,Bus,79,EAST HILLS,HOOD,East Hills Neighborhood
119,40.453937,-79.867335,E58000,WILNER DR OPP BRACEY DR,Both,Yes,Yes,No,Bus,79,EAST HILLS,HOOD,East Hills Neighborhood
120,40.454049,-79.86927,E58010,WILNER DR OPP #2278,Both,Yes,Yes,No,Bus,79,EAST HILLS,HOOD,East Hills Neighborhood
121,40.473862,-79.897581,E58020,WILTSIE ST AT #6903,Both,Yes,Yes,Yes,Bus,74,LINCOLN-LEMINGTON-BELMAR,HOOD,Lincoln-Lemington-Belmar Neighborhood
122,40.472591,-79.896858,E58030,WILTSIE ST AT WARDSONS ST,Both,Yes,Yes,Yes,Bus,74,LINCOLN-LEMINGTON-BELMAR,HOOD,Lincoln-Lemington-Belmar Neighborhood
123,40.473772,-79.897851,E58040,WILTSIE ST OPP #6903,Both,Yes,Yes,Yes,Bus,74,LINCOLN-LEMINGTON-BELMAR,HOOD,Lincoln-Lemington-Belmar Neighborhood
124,40.418973,-79.93991,E58050,WINTERBURN AVE AT BIGELOW ST,Inbound,Yes,Yes,Yes,Bus,58,HAZELWOOD,HOOD,Hazelwood Neighborhood
125,40.424278,-79.939767,E58060,WINTERBURN AVE AT BLANTON ST,Outbound,Yes,Yes,Yes,Bus,58,GREENFIELD,HOOD,Greenfield Neighborhood
126,40.42054,-79.93991,E58070,WINTERBURN AVE AT CONNOR ST,Inbound,Yes,Yes,Yes,Bus,58,GREENFIELD,HOOD,Greenfield Neighborhood
127,40.425472,-79.939923,E58080,WINTERBURN AVE AT DENMARSH ST,Inbound,Yes,Yes,Yes,Bus,58,GREENFIELD,HOOD,Greenfield Neighborhood
128,40.423376,-79.939883,E58090,WINTERBURN AVE AT FARNSWORTH ST FS,Inbound,Yes,Yes,Yes,Bus,58,GREENFIELD,HOOD,Greenfield Neighborhood
129,40.426081,-79.939713,E58100,WINTERBURN AVE AT GREENFIELD AVE,Outbound,Yes,Yes,Yes,Bus,58,GREENFIELD,HOOD,Greenfield Neighborhood
130,40.425249,-79.939801,E58120,WINTERBURN AVE AT MINNESOTA ST,Outbound,Yes,Yes,Yes,Bus,58,GREENFIELD,HOOD,Greenfield Neighborhood
131,40.424396,-79.939888,E58130,WINTERBURN AVE OPP BLANTON ST,Inbound,Yes,No,No,Bus,58,GREENFIELD,HOOD,Greenfield Neighborhood
132,40.420454,-79.93979,E58140,WINTERBURN AVE OPP CONNOR ST,Outbound,Yes,No,No,Bus,58,GREENFIELD,HOOD,Greenfield Neighborhood
133,40.423238,-79.939763,E58150,WINTERBURN AVE OPP FARNSWORTH ST,Outbound,Yes,No,No,Bus,58,GREENFIELD,HOOD,Greenfield Neighborhood
134,40.436447,-79.782542,E58240,WM PENN HWY OPP VALUE CITY,Outbound,Yes,Yes,Yes,Bus,67,MONROEVILLE,MUNICIPALI,Monroeville Municipality
135,40.431989,-79.730584,E58260,WILLIAM PENN HWY OPP JADENS II,Outbound,Yes,Yes,Yes,Bus,P12,MONROEVILLE,MUNICIPALI,Monroeville Municipality
136,40.438753,-79.769864,E58350,WM PENN HWY AT CENTER RD FS,Inbound,Yes,No,No,Bus,67,MONROEVILLE,MUNICIPALI,Monroeville Municipality
137,40.445941,-79.849246,E58360,WILLIAM PENN HWY AT CHURCHILL BORO BLDG,Outbound,Yes,No,No,Bus,"67, P12, P16, P67",CHURCHILL,BOROUGH,Churchill Borough
138,40.430259,-79.80628,E58370,WM PENN HWY AT HOME DEPOT,Outbound,Yes,No,No,Bus,"67, P67",WILKINS,TOWNSHIP,Wilkins Township
139,40.438262,-79.77242,E58380,WM PENN HWY AT DENNY'S,Outbound,Yes,No,No,Bus,67,MONROEVILLE,MUNICIPALI,Monroeville Municipality
140,40.438255,-79.774095,E58385,WM PENN HWY AT DUFF RD,Inbound,Yes,No,No,Bus,67,MONROEVILLE,MUNICIPALI,Monroeville Municipality
141,40.438704,-79.764554,E58390,WM PENN HWY AT DOLLAR BANK,Outbound,Yes,Yes,Yes,Bus,67,MONROEVILLE,MUNICIPALI,Monroeville Municipality
142,40.437565,-79.778609,E58400,WM PENN HWY AT NORTHERN PIKE FS,Inbound,Yes,Yes,Yes,Bus,67,MONROEVILLE,MUNICIPALI,Monroeville Municipality
143,40.434125,-79.732329,E58410,WILLIAM PENN HWY AT ELLIOTT RD,Inbound,Yes,No,No,Bus,P12,MONROEVILLE,MUNICIPALI,Monroeville Municipality
144,40.445049,-79.858772,E58440,WM PENN HWY AT GRAHAM BLVD,Outbound,Yes,Yes,Yes,Bus,"67, P12, P16, P67",WILKINSBURG,BOROUGH,Wilkinsburg Borough
145,40.445154,-79.859047,E58450,WM PENN HWY AT GRAHAM BLVD FS,Inbound,Yes,Yes,Yes,Bus,"67, P12, P16, P67",WILKINSBURG,BOROUGH,Wilkinsburg Borough
146,40.432953,-79.818901,E58480,WM PENN HWY AT HAWTHORNE DR,Inbound,Yes,Yes,Yes,Bus,P67,WILKINS,TOWNSHIP,Wilkins Township
147,40.430024,-79.809705,E58560,WM PENN HWY AT KINGSTON DR FS,Inbound,Yes,Yes,Yes,Bus,"67, P67",WILKINS,TOWNSHIP,Wilkins Township
148,40.445494,-79.855508,E58575,WM PENN HWY AT MCCREA DR,Outbound,Yes,Yes,Yes,Bus,"67, P12, P16, P67",CHURCHILL,BOROUGH,Churchill Borough
149,40.430807,-79.805771,E58590,WM PENN HWY AT PEP BOYS,Inbound,Yes,No,No,Bus,"67, P67",WILKINS,TOWNSHIP,Wilkins Township
150,40.438179,-79.83076,E58650,WM PENN HWY AT NOTTINGHAM DR,Outbound,Yes,Yes,Yes,Bus,"67, P67",CHURCHILL,BOROUGH,Churchill Borough
151,40.445771,-79.855098,E58665,WM PENN HWY AT OLD GATE RD,Inbound,Yes,Yes,Yes,Bus,"67, P12, P16, P67",WILKINSBURG,BOROUGH,Wilkinsburg Borough
152,40.429961,-79.812621,E58700,WM PENN HWY AT PENN CENTER BLVD NS (DONUT SHO,Outbound,Yes,Yes,Yes,Bus,P67,WILKINS,TOWNSHIP,Wilkins Township
153,40.433752,-79.796976,E58705,WM PENN HWY AT KIA DEALERSHIP,Inbound,Yes,No,No,Bus,"67, P67",MONROEVILLE,MUNICIPALI,Monroeville Municipality
154,40.433325,-79.798582,E58710,WM PENN HWY AT SAM'S WAREHOUSE DRVWY,Inbound,Yes,No,No,Bus,"67, P67",MONROEVILLE,MUNICIPALI,Monroeville Municipality
155,40.432988,-79.798413,E58720,WM PENN HWY AT KOHL'S DRVWY,Outbound,Yes,No,No,Bus,"67, P67",MONROEVILLE,MUNICIPALI,Monroeville Municipality
156,40.438623,-79.767164,E58725,WM PENN HWY OPP RITE AID,Outbound,Yes,Yes,Yes,Bus,67,MONROEVILLE,MUNICIPALI,Monroeville Municipality
157,40.43907,-79.765052,E58730,WM PENN HWY AT #4155 (PANDA EXPRESS),Inbound,Yes,No,No,Bus,67,MONROEVILLE,MUNICIPALI,Monroeville Municipality
158,40.438044,-79.775525,E58780,WM PENN HWY AT RED LOBSTER,Inbound,Yes,No,No,Bus,67,MONROEVILLE,MUNICIPALI,Monroeville Municipality
159,40.438683,-79.831075,E58790,WM PENN HWY AT RODI RD FS,Inbound,Yes,No,No,Bus,"67, P67",CHURCHILL,BOROUGH,Churchill Borough
160,40.43852,-79.769639,E58850,WM PENN HWY AT STROSCHEIN RD,Outbound,Yes,Yes,Yes,Bus,67,MONROEVILLE,MUNICIPALI,Monroeville Municipality
161,40.436664,-79.782818,E58890,WM PENN HWY AT VALUE CITY,Inbound,Yes,No,No,Bus,67,MONROEVILLE,MUNICIPALI,Monroeville Municipality
162,40.432042,-79.730218,E58930,WILLIAM PENN HWY AT JADENS II,Inbound,Yes,No,No,Bus,P12,MONROEVILLE,MUNICIPALI,Monroeville Municipality
163,40.446221,-79.851086,E59010,WILLIAM PENN HWY OPP CHURCHILL BORO BLDG,Inbound,Yes,No,No,Bus,"67, P12, P16, P67",CHURCHILL,BOROUGH,Churchill Borough
164,40.434155,-79.732767,E59050,WILLIAM PENN HWY OPP ELLIOTT RD,Outbound,Yes,No,No,Bus,P12,MONROEVILLE,MUNICIPALI,Monroeville Municipality
165,40.437473,-79.777468,E59060,WM PENN HWY OPP NORTHERN PIKE,Outbound,Yes,No,No,Bus,67,MONROEVILLE,MUNICIPALI,Monroeville Municipality
166,40.429683,-79.809857,E59140,WM PENN HWY OPP KINGSTON DR,Outbound,Yes,Yes,Yes,Bus,"67, P67",WILKINS,TOWNSHIP,Wilkins Township
167,40.430204,-79.812211,E59230,WM PENN HWY OPP PENN CENTER BLVD,Inbound,Yes,Yes,Yes,Bus,P67,WILKINS,TOWNSHIP,Wilkins Township
168,40.437839,-79.775453,E59270,WM PENN HWY OPP RED LOBSTER,Outbound,Yes,Yes,Yes,Bus,67,MONROEVILLE,MUNICIPALI,Monroeville Municipality
169,40.44112,-79.886015,E59360,WOOD ST AT FRANKLIN AVE,Both,Yes,Yes,Yes,Bus,"61A, 71, P71",WILKINSBURG,BOROUGH,Wilkinsburg Borough
170,40.448845,-79.883931,E59365,WOOD ST AT MOOSEHEART ST,Inbound,Yes,Yes,Yes,Bus,"71D, 86",WILKINSBURG,BOROUGH,Wilkinsburg Borough
171,40.445919,-79.883363,E59370,WOOD ST AT HILL AVE,Inbound,Yes,No,No,Bus,"71D, 86",WILKINSBURG,BOROUGH,Wilkinsburg Borough
172,40.446193,-79.883477,E59380,WOOD ST AT HILL AVE,Outbound,Yes,Yes,Yes,Bus,"71D, 86",WILKINSBURG,BOROUGH,Wilkinsburg Borough
173,40.447203,-79.883718,E59390,WOOD ST AT HOLMES ST,Outbound,Yes,Yes,Yes,Bus,"71D, 86",WILKINSBURG,BOROUGH,Wilkinsburg Borough
174,40.442743,-79.885246,E59430,WOOD ST AT ROSS AVE,Inbound,Yes,No,No,Bus,"71, P71",WILKINSBURG,BOROUGH,Wilkinsburg Borough
175,40.441895,-79.885579,E59450,WOOD ST AT SOUTH AVE,Both,Yes,Yes,Yes,Bus,"61A, 71, P71",WILKINSBURG,BOROUGH,Wilkinsburg Borough
176,40.448021,-79.883911,E59480,WOOD ST AT SUSQUEHANNA ST FS,Outbound,Yes,Yes,Yes,Bus,"71D, 86",WILKINSBURG,BOROUGH,Wilkinsburg Borough
177,40.444339,-79.884322,E59510,WOOD ST AT WALLACE AVE,Inbound,Yes,Yes,Yes,Bus,"71, P71",WILKINSBURG,BOROUGH,Wilkinsburg Borough
178,40.444634,-79.884432,E59520,WOOD ST AT WALLACE AVE,Outbound,Yes,Yes,Yes,Bus,"71D, 86",WILKINSBURG,BOROUGH,Wilkinsburg Borough
179,40.446994,-79.883475,E59540,WOOD ST OPP HOLMES ST,Inbound,Yes,Yes,Yes,Bus,"71D, 86",WILKINSBURG,BOROUGH,Wilkinsburg Borough
180,40.448036,-79.883725,E59550,WOOD ST OPP SUSQUEHANNA ST,Inbound,Yes,Yes,Yes,Bus,"71D, 86",WILKINSBURG,BOROUGH,Wilkinsburg Borough
181,40.414265,-79.87258,E59570,WOODSTOCK AVE AT #2695,Inbound,Yes,Yes,Yes,Bus,"59, 61A",SWISSVALE,BOROUGH,Swissvale Borough
182,40.419046,-79.884104,E59580,WOODSTOCK AVE AT ARDMORE ST,Inbound,Yes,Yes,Yes,Bus,"59, 61A, P71",SWISSVALE,BOROUGH,Swissvale Borough
183,40.419081,-79.884441,E59590,WOODSTOCK AVE AT ARDMORE ST,Outbound,Yes,Yes,Yes,Bus,"59, 61A, P71",SWISSVALE,BOROUGH,Swissvale Borough
184,40.415292,-79.875539,E59605,WOODSTOCK AVE OPP BELMAR PL,Inbound,Yes,Yes,Yes,Bus,"59, 61A",SWISSVALE,BOROUGH,Swissvale Borough
185,40.415333,-79.876986,E59610,WOODSTOCK AVE AT BRADDOCK AVE,Outbound,Yes,Yes,Yes,Bus,"59, 61A, P71",SWISSVALE,BOROUGH,Swissvale Borough
186,40.415483,-79.877135,E59620,WOODSTOCK AVE AT BRADDOCK AVE FS,Inbound,Yes,Yes,Yes,Bus,61A,SWISSVALE,BOROUGH,Swissvale Borough
187,40.417094,-79.880745,E59630,WOODSTOCK AVE AT MELROSE ST,Inbound,Yes,Yes,Yes,Bus,"59, 61A, P71",SWISSVALE,BOROUGH,Swissvale Borough
188,40.417109,-79.88106,E59640,WOODSTOCK AVE AT MELROSE ST,Outbound,Yes,Yes,Yes,Bus,"59, 61A, P71",SWISSVALE,BOROUGH,Swissvale Borough
189,40.418101,-79.882505,E59650,WOODSTOCK AVE AT ORMOND ST,Inbound,Yes,Yes,Yes,Bus,"59, 61A, P71",SWISSVALE,BOROUGH,Swissvale Borough
190,40.418092,-79.882809,E59660,WOODSTOCK AVE AT ORMOND ST,Outbound,Yes,Yes,Yes,Bus,"59, 61A, P71",SWISSVALE,BOROUGH,Swissvale Borough
191,40.414813,-79.874353,E59670,WOODSTOCK AVE AT WOODSTOCK TERRACE,Outbound,Yes,No,No,Bus,"59, 61A",SWISSVALE,BOROUGH,Swissvale Borough
192,40.414819,-79.874057,E59680,WOODSTOCK AVE OPP WOODSTOCK TERR,Inbound,Yes,Yes,Yes,Bus,"59, 61A",SWISSVALE,BOROUGH,Swissvale Borough
193,40.414175,-79.87277,E59690,WOODSTOCK AVE AT #2690,Outbound,Yes,Yes,Yes,Bus,"59, 61A",SWISSVALE,BOROUGH,Swissvale Borough
194,40.416066,-79.879099,E59700,WOODSTOCK AVE AT VERNON AVE (BUSWAY),Inbound,Yes,Yes,Yes,Bus,61A,SWISSVALE,BOROUGH,Swissvale Borough
195,40.416116,-79.87946,E59710,WOODSTOCK AVE AT VERNON AVE (BUSWAY),Outbound,Yes,Yes,Yes,Bus,"59, 61A, P71",SWISSVALE,BOROUGH,Swissvale Borough
196,40.413528,-79.871291,E59720,WOODSTOCK AVE AT WILKINS AVE FS,Inbound,Yes,Yes,Yes,Bus,"59, 61A",SWISSVALE,BOROUGH,Swissvale Borough
197,40.413333,-79.871328,E59730,WOODSTOCK AVE OPP WILKINS AVE,Outbound,Yes,Yes,Yes,Bus,"59, 61A",SWISSVALE,BOROUGH,Swissvale Borough
198,40.413975,-79.850856,E60085,YOST BLVD AT ARDMORE MANOR DR,Inbound,Yes,Yes,Yes,Bus,59,BRADDOCK HILLS,BOROUGH,Braddock Hills Borough
199,40.415516,-79.847729,E60090,YOST BLVD AT ARDMORE BLVD,Outbound,Yes,Yes,Yes,Bus,59,FOREST HILLS,BOROUGH,Forest Hills Borough
200,40.415557,-79.848004,E60095,YOST BLVD AT ARDMORE BLVD FS,Inbound,Yes,Yes,Yes,Bus,59,FOREST HILLS,BOROUGH,Forest Hills Borough
201,40.412381,-79.856356,E60100,YOST BLVD AT BRINTON RD,Outbound,Yes,Yes,Yes,Bus,"59, 61A, 61B",BRADDOCK HILLS,BOROUGH,Braddock Hills Borough
202,40.412356,-79.856591,E60110,YOST BLVD AT BRINTON RD FS,Inbound,Yes,Yes,Yes,Bus,"59, 61A, 61B",BRADDOCK HILLS,BOROUGH,Braddock Hills Borough
203,40.40828,-79.858082,E60150,YOST BLVD OPP MAIN ST,Inbound,Yes,Yes,Yes,Bus,"59, 61A, 61B",NORTH BRADDOCK,BOROUGH,North Braddock Borough
204,40.415719,-79.878697,E70000,WOODSTOCK AVE AT SWISSVALE STATION STEPS,Outbound,Yes,Yes,Yes,Bus,"59, 61A, P71",SWISSVALE,BOROUGH,Swissvale Borough
205,40.467068,-79.964193,E70001,BUTLER ST AT 38TH ST,Inbound,Yes,Yes,Yes,Bus,91,LOWER LAWRENCEVILLE,HOOD,Lower Lawrenceville Neighborhood
206,40.448759,-79.987314,E70002,16TH ST AT PENN AVE,Inbound,Yes,Yes,Yes,Bus,54,STRIP DISTRICT,HOOD,Strip District Neighborhood
207,40.455906,-79.871039,E70003,EAST HILLS DR AT #2303,Inbound,Yes,Yes,Yes,Bus,79,EAST HILLS,HOOD,East Hills Neighborhood
208,40.456054,-79.870858,E70004,EAST HILLS DR AT #2340,Outbound,Yes,Yes,Yes,Bus,79,EAST HILLS,HOOD,East Hills Neighborhood
209,40.415646,-79.878197,E70007,WOODSTOCK AVE OPP SWISSVALE STATION STEPS,Inbound,Yes,Yes,Yes,Bus,61A,SWISSVALE,BOROUGH,Swissvale Borough
210,40.457058,-79.938386,E70013,BAUM BLVD AT AIKEN AVE,Inbound,Yes,Yes,Yes,Bus,77,BLOOMFIELD,HOOD,Bloomfield Neighborhood
211,40.458244,-79.933833,E70014,NEGLEY AVE AT BAUM BLVD,Outbound,Yes,Yes,Yes,Bus,"71A, 71C",EAST LIBERTY,HOOD,East Liberty Neighborhood
212,40.399892,-79.835431,E70016,LINDEN AVE AT BEECH ST NS,Outbound,Yes,Yes,Yes,Bus,"59, 68, P68",EAST PITTSBURGH,BOROUGH,East Pittsburgh Borough
213,40.399658,-79.83586,E70017,LINDEN AVE AT CABLE AVE,Inbound,Yes,Yes,Yes,Bus,"59, 68, P68",EAST PITTSBURGH,BOROUGH,East Pittsburgh Borough
214,40.423462,-79.886475,E70019,EDGEWOOD AVE AT BRADDOCK AVE NS,Outbound,Yes,No,No,Bus,"61A, P7",SWISSVALE,BOROUGH,Swissvale Borough
215,40.451412,-79.953395,E70020,CENTRE AVE AT DITHRIDGE ST,Outbound,Yes,No,No,Bus,82,NORTH OAKLAND,HOOD,North Oakland Neighborhood
216,40.449814,-79.884176,E70021,OAKWOOD ST AT NIMICK PL,Inbound,Yes,No,No,Bus,"71D, 86",EAST HILLS,HOOD,East Hills Neighborhood
217,40.440713,-79.986754,E70022,CENTRE AVE OPP WASHINGTON PLAZA,Inbound,Yes,No,No,Bus,"82, 83",CENTRAL BUSINESS DISTRICT,HOOD,Central Business District Neighborhood
218,40.522029,-79.842676,E70025,ALLEGHENY AVE AT PENNSYLVANIA AVE,Inbound,Yes,No,No,Bus,P78,OAKMONT,BOROUGH,Oakmont Borough
219,40.520193,-79.842957,E70026,ALLEGHENY AVE AT ANN ST NS,Inbound,Yes,No,No,Bus,P78,OAKMONT,BOROUGH,Oakmont Borough
220,40.51896,-79.843115,E70027,ALLEGHENY AVE AT MARYLAND AVE,Inbound,Yes,No,No,Bus,P78,OAKMONT,BOROUGH,Oakmont Borough
221,40.51764,-79.843239,E70028,ALLEGHENY AVE AT DELAWARE AVE,Inbound,Yes,No,No,Bus,P78,OAKMONT,BOROUGH,Oakmont Borough
222,40.516328,-79.843408,E70029,ALLEGHENY AVE AT WASHINGTON AVE,Inbound,Yes,No,No,Bus,P78,OAKMONT,BOROUGH,Oakmont Borough
223,40.514133,-79.843643,E70030,ALLEGHENY AVE OPP COLLEGE AVE,Inbound,Yes,No,No,Bus,P78,OAKMONT,BOROUGH,Oakmont Borough
224,40.515239,-79.843335,E70031,ALLEGHENY AVE OPP CALIFORNIA AVE,Outbound,Yes,No,No,Bus,P78,OAKMONT,BOROUGH,Oakmont Borough
225,40.516082,-79.843249,E70032,ALLEGHENY AVE AT WASHINGTON AVE,Outbound,Yes,No,No,Bus,P78,OAKMONT,BOROUGH,Oakmont Borough
226,40.517383,-79.843126,E70033,ALLEGHENY AVE OPP DELAWARE AVE,Outbound,Yes,No,No,Bus,P78,OAKMONT,BOROUGH,Oakmont Borough
227,40.518836,-79.842914,E70034,ALLEGHENY AVE OPP MARYLAND AVE NS,Outbound,Yes,No,No,Bus,P78,OAKMONT,BOROUGH,Oakmont Borough
228,40.52001,-79.842783,E70035,ALLEGHENY AVE OPP ANN ST,Outbound,Yes,Yes,Yes,Bus,P78,OAKMONT,BOROUGH,Oakmont Borough
229,40.521786,-79.842546,E70036,ALLEGHENY AVE AT PENNSYLVANIA AVE,Outbound,Yes,Yes,Yes,Bus,P78,OAKMONT,BOROUGH,Oakmont Borough
230,40.523698,-79.841895,E70037,ALLEGHENY AVE OPP ARCHIE ST,Outbound,Yes,Yes,Yes,Bus,P78,OAKMONT,BOROUGH,Oakmont Borough
231,40.524847,-79.841263,E70038,ALLEGHENY AVE AT HULTON RD NS (PORTE ST STEPS),Outbound,Yes,Yes,Yes,Bus,P78,OAKMONT,BOROUGH,Oakmont Borough
232,40.462221,-79.841007,E70039,FRANKSTOWN RD OPP RITZLAND RD FS,Inbound,Yes,Yes,Yes,Bus,77,PENN HILLS,MUNICIPALI,Penn Hills Municipality
233,40.461939,-79.963752,E70040,LIBERTY AVE AT 36TH ST,Inbound,Yes,Yes,Yes,Bus,"54, 86, 87",LOWER LAWRENCEVILLE,HOOD,Lower Lawrenceville Neighborhood
234,40.461178,-79.87006,E70041,FRANKSTOWN RD AT EASTWOOD RD,Inbound,Yes,No,No,Bus,77,,,
235,40.45742,-79.896039,E70046,FRANKSTOWN AVE AT HOMEWOOD AVE,Inbound,Yes,Yes,Yes,Bus,"77, 86",HOMEWOOD NORTH,HOOD,Homewood North Neighborhood
236,40.40633,-79.941361,E70047,JOHNSTON AVE OPP GERTRUDE ST,Both,Yes,Yes,Yes,Bus,"57, 93",HAZELWOOD,HOOD,Hazelwood Neighborhood
237,40.408237,-79.925761,E70048,JOHNSTON AVE OPP NAOMI DR,Outbound,Yes,Yes,Yes,Bus,57,GLEN HAZEL,HOOD,Glen Hazel Neighborhood
238,40.503645,-79.841137,E70065,WILDWOOD AVE AT #444,Inbound,Yes,Yes,Yes,Bus,P78,VERONA,BOROUGH,Verona Borough
239,40.439613,-79.970571,E70066,BENTLEY DR AT BURROWS ST,Outbound,Yes,Yes,Yes,Bus,81,WEST OAKLAND,HOOD,West Oakland Neighborhood
240,40.400491,-79.772269,E70075,BROADWAY BLVD AT #1010,Inbound,Yes,No,No,Bus,"69, P69",PITCAIRN,BOROUGH,Pitcairn Borough
241,40.400392,-79.772452,E70076,BROADWAY BLVD OPP #1010,Outbound,Yes,Yes,Yes,Bus,"69, P69",MONROEVILLE,MUNICIPALI,Monroeville Municipality
242,40.414664,-79.815737,E70083,JAMES ST AT LOWER BOONE DR,Outbound,Yes,Yes,No,Bus,"68, P68",TURTLE CREEK,BOROUGH,Turtle Creek Borough
243,40.442609,-79.965857,E70084,ALLEQUIPPA ST AT ROBINSON ST,Inbound,Yes,Yes,Yes,Bus,83,WEST OAKLAND,HOOD,West Oakland Neighborhood
244,40.523893,-79.84201,E70087,ALLEGHENY AVE AT ARCHIE ST NS,Inbound,Yes,Yes,Yes,Bus,P78,OAKMONT,BOROUGH,Oakmont Borough
245,40.471565,-79.94012,E70111,COLUMBO ST AT SCHENLEY AVE,Inbound,Yes,Yes,Yes,Bus,89,GARFIELD,HOOD,Garfield Neighborhood
246,40.467756,-79.90721,E70112,LARIMER AVE AT DEARY ST,Outbound,Yes,No,No,Bus,74,LINCOLN-LEMINGTON-BELMAR,HOOD,Lincoln-Lemington-Belmar Neighborhood
247,40.461098,-79.870454,E70116,FRANKSTOWN RD AT EAST HILLS DR NS,Outbound,Yes,Yes,Yes,Bus,77,EAST HILLS,HOOD,East Hills Neighborhood
248,40.404747,-79.862424,E70117,BALDRIDGE AVE AT MIDDLE ST,Inbound,Yes,Yes,Yes,Bus,61A,NORTH BRADDOCK,BOROUGH,North Braddock Borough
249,40.425241,-79.947816,E70142,GREENFIELD AVE AT #322,Outbound,Yes,Yes,Yes,Bus,58,GREENFIELD,HOOD,Greenfield Neighborhood
250,40.443874,-79.713454,E70143,HWY RT 286 AT ROYAL OAKS SHOPPING CENTER DRV,Outbound,Yes,Yes,Yes,Bus,P12,MONROEVILLE,MUNICIPALI,Monroeville Municipality
251,40.45949,-79.946304,E70144,MILLVALE AVE AT MITRE WAY,Inbound,Yes,Yes,Yes,Bus,54,BLOOMFIELD,HOOD,Bloomfield Neighborhood
252,40.415247,-79.875834,E70154,WOODSTOCK AVE AT BELMAR PL,Outbound,Yes,Yes,Yes,Bus,"59, 61A",SWISSVALE,BOROUGH,Swissvale Borough
253,40.434896,-79.88289,E70157,SWISSVALE AVE AT COAL ST,Outbound,Yes,Yes,Yes,Bus,61A,EDGEWOOD,BOROUGH,Edgewood Borough
254,40.448003,-79.898143,E70158,PENN AVE AT CARNEGIE PL FS,Outbound,Yes,No,No,Bus,"67, 69, 71C",POINT BREEZE,HOOD,Point Breese Neighborhood
255,40.457361,-79.973122,E70159,LIBERTY AVE AT 29TH ST FS,Outbound,Yes,No,No,Bus,"54, 86, 87, 88, 91",POLISH HILL,HOOD,Polish Hill Neighborhood
256,40.464866,-79.831181,E70162,FRANKSTOWN RD AT EVERNIA DR FS,Outbound,Yes,Yes,Yes,Bus,"77, P16",PENN HILLS,MUNICIPALI,Penn Hills Municipality
257,40.464826,-79.923192,E70164,HIGHLAND AVE OPP RIPPEY ST FS,Outbound,Yes,Yes,Yes,Bus,71B,EAST LIBERTY,HOOD,East Liberty Neighborhood
258,40.456618,-79.911364,E70179,EAST LIBERTY DIV DRVWY AT EMPLOYEE PARKING LOT,Inbound,Yes,Yes,Yes,Bus,"P10, P17",LARIMER,HOOD,Larimer Neighborhood
259,40.440263,-79.742044,E70181,OLD WILLIAM PENN HWY AT BEATTY RD,Inbound,Yes,Yes,Yes,Bus,P12,MONROEVILLE,MUNICIPALI,Monroeville Municipality
260,40.442509,-79.884368,E70182,ROSS AVE AT WOOD ST FS (SAVE A LOT),Both,Yes,Yes,Yes,Bus,"61A, 67, 69, 79, P12, P67, P69, P78",WILKINSBURG,BOROUGH,Wilkinsburg Borough
261,40.458441,-79.91669,E70209,EAST LIBERTY BLVD OPP DAHLEM PL,Inbound,Yes,Yes,Yes,Bus,"74, 75, 77, 82, 86, 89",EAST LIBERTY,HOOD,East Liberty Neighborhood
262,40.412105,-79.876031,E70215,BRADDOCK AVE AT HAWKINS VILLAGE NS,Both,Yes,Yes,Yes,Bus,"59, 71, P7",RANKIN,BOROUGH,Rankin Borough
263,40.446466,-79.960481,E70217,VA HOSPITAL TRANSIT LOOP AT SHELTER,Both,Yes,Yes,Yes,Bus,83,TERRACE VILLAGE,HOOD,Terrace Village Neighborhood
264,40.449838,-79.891678,E70228,LAYOVER BRUSHTON TERMINAL,Both,Yes,Yes,Yes,Bus,"68, 69, 71, 71C, 71D, 79, 86",WILKINSBURG,BOROUGH,Wilkinsburg Borough
265,40.459198,-79.922944,E70230,ELLSWORTH AVE AT EAST LIBERTY STATION,Inbound,Yes,Yes,Yes,Bus,75,SHADYSIDE,HOOD,Shadeyside Neighborhood
266,40.458357,-79.92729,E70231,ELLSWORTH AVE OPP SPAHR ST,Inbound,Yes,No,No,Bus,75,SHADYSIDE,HOOD,Shadeyside Neighborhood
267,40.457224,-79.929252,E70232,ELLSWORTH AVE AT COLLEGE ST,Inbound,Yes,No,No,Bus,75,SHADYSIDE,HOOD,Shadeyside Neighborhood
268,40.458162,-79.927584,E70233,ELLSWORTH AVE AT SPAHR ST,Outbound,Yes,No,No,Bus,75,SHADYSIDE,HOOD,Shadeyside Neighborhood
269,40.459133,-79.92289,E70234,ELLSWORTH AVE OPP EAST LIBERTY STATION,Outbound,Yes,Yes,Yes,Bus,75,SHADYSIDE,HOOD,Shadeyside Neighborhood
270,40.455788,-79.910785,E70236,FIFTH AVE RAMP AT FIFTH AVE NS,Outbound,Yes,Yes,Yes,Bus,"P10, P17",LARIMER,HOOD,Larimer Neighborhood
271,40.457033,-79.90903,E70237,FIFTH AVE AT HAMILTON AVE,Outbound,Yes,Yes,Yes,Bus,P10,HOMEWOOD WEST,HOOD,Homewood West Neighborhood
272,40.46207,-79.905556,E70239,WASHINGTON BLVD AT SILVER LAKE DR,Outbound,Yes,Yes,Yes,Bus,P10,HOMEWOOD WEST,HOOD,Homewood West Neighborhood
273,40.462233,-79.944361,E70242,GROSS ST AT FRIENDSHIP AVE,Inbound,Yes,Yes,Yes,Bus,64,BLOOMFIELD,HOOD,Bloomfield Neighborhood
274,40.465222,-79.951154,E70243,FRIENDSHIP AVE OPP HOWLEY ST,Inbound,Yes,Yes,Yes,Bus,64,BLOOMFIELD,HOOD,Bloomfield Neighborhood
275,40.467427,-79.963413,E70244,39TH ST AT BUTLER ST,Both,Yes,Yes,Yes,Bus,64,LOWER LAWRENCEVILLE,HOOD,Lower Lawrenceville Neighborhood
276,40.466276,-79.959448,E70245,40TH ST OPP GOVERNMENT WAY STEPS,Both,Yes,Yes,Yes,Bus,"64, 93",LOWER LAWRENCEVILLE,HOOD,Lower Lawrenceville Neighborhood
277,40.465185,-79.951415,E70246,FRIENDSHIP AVE AT HOWLEY ST,Outbound,Yes,Yes,Yes,Bus,64,BLOOMFIELD,HOOD,Bloomfield Neighborhood
278,40.401165,-79.835083,E70251,ELECTRIC AVE AT DYNAMO WAY,Outbound,Yes,Yes,Yes,Bus,"69, P69",EAST PITTSBURGH,BOROUGH,East Pittsburgh Borough
279,40.455181,-79.871213,E70252,EAST HILLS DR OPP WILNER DR,Inbound,Yes,Yes,Yes,Bus,79,EAST HILLS,HOOD,East Hills Neighborhood
280,40.449163,-79.884022,E70254,WOOD ST OPP TIOGA ST,Inbound,Yes,Yes,Yes,Bus,"71D, 86",EAST HILLS,HOOD,East Hills Neighborhood
281,40.460934,-79.866509,E70255,ROBINSON BLVD AT FRANKSTOWN RD FS,Outbound,Yes,Yes,Yes,Bus,79,PENN HILLS,MUNICIPALI,Penn Hills Municipality
282,40.459038,-79.865673,E70256,ROBINSON BLVD AT #2600 (OPP E GATE),Inbound,Yes,Yes,Yes,Bus,79,PENN HILLS,MUNICIPALI,Penn Hills Municipality
283,40.460965,-79.866313,E70257,ROBINSON BLVD AT FRANKSTOWN RD,Inbound,Yes,Yes,Yes,Bus,79,PENN HILLS,MUNICIPALI,Penn Hills Municipality
284,40.455885,-79.864044,E70258,ROBINSON BLVD OPP DOUGLASS DR,Outbound,Yes,Yes,Yes,Bus,79,WILKINSBURG,BOROUGH,Wilkinsburg Borough
285,40.465851,-79.865922,E70260,MT CARMEL RD AT VERONA RD FS,Inbound,Yes,Yes,Yes,Bus,"79, P17",PENN HILLS,MUNICIPALI,Penn Hills Municipality
286,40.466284,-79.868319,E70261,MT CARMEL RD OPP DOLLMAN RD,Inbound,Yes,Yes,Yes,Bus,"79, P17",PENN HILLS,MUNICIPALI,Penn Hills Municipality
287,40.466378,-79.868725,E70262,MT CARMEL RD AT DOLLMAN RD,Outbound,Yes,Yes,Yes,Bus,79,PENN HILLS,MUNICIPALI,Penn Hills Municipality
288,40.46568,-79.865662,E70263,MT CARMEL RD AT VERONA RD,Outbound,Yes,Yes,No,Bus,79,PENN HILLS,MUNICIPALI,Penn Hills Municipality
289,40.40053,-79.833626,E70264,BRADDOCK AVE AT ELECTRIC AVE,Inbound,Yes,Yes,Yes,Bus,"59, 68, 69, P68, P69",TURTLE CREEK,BOROUGH,Turtle Creek Borough
290,40.455389,-79.883404,E70265,FRANKSTOWN AVE OPP BLACKADORE AVE,Outbound,Yes,Yes,Yes,Bus,77,EAST HILLS,HOOD,East Hills Neighborhood
291,40.454772,-79.880855,E70266,TOKAY ST AT BENNETT ST,Outbound,Yes,Yes,Yes,Bus,77,EAST HILLS,HOOD,East Hills Neighborhood
292,40.465086,-79.914683,E70267,LARIMER AVE AT MEADOW ST,Outbound,Yes,No,No,Bus,74,LARIMER,HOOD,Larimer Neighborhood
293,40.46543,-79.914422,E70268,LARIMER AVE AT MEADOW ST,Inbound,Yes,No,No,Bus,74,LARIMER,HOOD,Larimer Neighborhood
294,40.440614,-79.960447,E70271,DARRAGH ST AT FIFTH AVE,Outbound,Yes,No,No,Bus,"81, 83",WEST OAKLAND,HOOD,West Oakland Neighborhood
295,40.440654,-79.968636,E70273,ALLEQUIPPA ST AT SR RESIDENCE (TERRACE),Outbound,Yes,No,No,Bus,83,TERRACE VILLAGE,HOOD,Terrace Village Neighborhood
296,40.485275,-79.81751,E70276,LEECHBURG RD AT SALTSBURG RD FS,Outbound,Yes,No,No,Bus,"77, P16",PENN HILLS,MUNICIPALI,Penn Hills Municipality
297,40.455985,-79.857694,E70277,LAKETON RD AT GRAHAM BLVD NS,Outbound,Yes,No,No,Bus,P78,WILKINSBURG,BOROUGH,Wilkinsburg Borough
298,40.476385,-79.760208,E70278,MONROEVILLE TRESTLE RD AT SALTSBURG RD,Inbound,Yes,Yes,Yes,Bus,"77, P16",PLUM,BOROUGH,Plum Borough
299,40.463973,-79.801015,E70279,UNIVERSAL RD AT ANTHON DR,Inbound,Yes,Yes,Yes,Bus,P16,PENN HILLS,MUNICIPALI,Penn Hills Municipality
300,40.477834,-79.759805,E70280,UNITY TRESTLE RD AT SALTSBURG RD,Both,Yes,Yes,Yes,Bus,"77, P16",PLUM,BOROUGH,Plum Borough
301,40.476578,-79.76023,E70281,SALTSBURG RD OPP MONROEVILLE TRESTLE RD,Both,Yes,Yes,Yes,Bus,"77, P16",PLUM,BOROUGH,Plum Borough
302,40.458953,-79.927932,E70282,CENTRE AVE AT WHOLE FOODS,Outbound,Yes,Yes,Yes,Bus,"82, 86",SHADYSIDE,HOOD,Shadeyside Neighborhood
303,40.455964,-79.915042,E70283,PENN AVE AT BAKERY SQUARE,Inbound,Yes,Yes,Yes,Bus,"71C, 88",LARIMER,HOOD,Larimer Neighborhood
304,40.487806,-79.92476,E70284,JANCEY ST OPP GAEL WAY,Inbound,Yes,Yes,Yes,Bus,"75, 87",MORNINGSIDE,HOOD,Morningside Neighborhood
305,40.460236,-79.927749,E70288,BAUM BLVD AT BEATTY ST,Inbound,Yes,Yes,Yes,Bus,"74, 89",EAST LIBERTY,HOOD,East Liberty Neighborhood
306,40.452043,-79.886046,E70290,HAMILTON AVE OPP ROSEDALE ST,Inbound,Yes,Yes,Yes,Bus,71D,HOMEWOOD SOUTH,HOOD,Homewood South Neighborhood
307,40.451639,-79.884935,E70292,HAMILTON AVE AT OAKWOOD ST,Outbound,Yes,Yes,Yes,Bus,71D,HOMEWOOD SOUTH,HOOD,Homewood South Neighborhood
308,40.442842,-79.961978,E70293,TERRACE ST AT SUTHERLAND DR,Inbound,Yes,Yes,Yes,Bus,"81, 83",NORTH OAKLAND,HOOD,North Oakland Neighborhood
309,40.44932,-79.957454,E70296,BRYN MAWR RD AT CENTRE AVE FS,Inbound,Yes,Yes,Yes,Bus,83,UPPER HILL,HOOD,Upper Hill Neighborhood
310,40.450061,-79.95709,E70297,BRYN MAWR RD AT ANDOVER TERR,Inbound,Yes,Yes,Yes,Bus,83,UPPER HILL,HOOD,Upper Hill Neighborhood
311,40.451405,-79.957415,E70298,BRYN MAWR RD AT IOWA ST,Outbound,Yes,Yes,Yes,Bus,83,UPPER HILL,HOOD,Upper Hill Neighborhood
312,40.451402,-79.957134,E70299,BRYN MAWR RD AT IOWA ST,Inbound,Yes,No,No,Bus,83,UPPER HILL,HOOD,Upper Hill Neighborhood
313,40.45025,-79.957181,E70300,BRYN MAWR RD OPP ANDOVER TERR,Outbound,Yes,No,No,Bus,83,UPPER HILL,HOOD,Upper Hill Neighborhood
314,40.449041,-79.957794,E70301,BRYN MAWR RD AT CENTRE AVE,Outbound,Yes,No,No,Bus,83,UPPER HILL,HOOD,Upper Hill Neighborhood
315,40.439905,-79.967753,E70302,TERRACE ST AT OAK HILL DR,Outbound,Yes,No,No,Bus,83,TERRACE VILLAGE,HOOD,Terrace Village Neighborhood
316,40.420635,-79.896505,E70306,MCCLURE AVE AT NEVADA ST,Both,Yes,No,No,Bus,"71, P71",SWISSVALE,BOROUGH,Swissvale Borough
317,40.420052,-79.897606,E70307,MCCLURE AVE AT COMMERCIAL ST,Both,Yes,No,No,Bus,"71, P71",SWISSVALE,BOROUGH,Swissvale Borough
318,40.421289,-79.900353,E70308,COMMERCIAL ST AT WHIPPLE ST,Both,Yes,No,No,Bus,"71, P71",SWISSHELM PARK,HOOD,Swisselm Park Neighborhood
319,40.47322,-79.848371,E70320,COAL HOLLOW RD OPP LIME HOLLOW RD,Inbound,Yes,No,No,Bus,P78,PENN HILLS,MUNICIPALI,Penn Hills Municipality
320,40.46656,-79.84706,E70321,COAL HOLLOW RD AT OLD COAL HOLLOW RD #1,Inbound,Yes,No,No,Bus,P78,PENN HILLS,MUNICIPALI,Penn Hills Municipality
321,40.463391,-79.844507,E70322,COAL HOLLOW RD OPP CLIFF DR,Inbound,Yes,No,No,Bus,P78,PENN HILLS,MUNICIPALI,Penn Hills Municipality
322,40.462307,-79.842775,E70323,COAL HOLLOW RD AT OLD COAL HOLLOW RD #2,Inbound,Yes,No,No,Bus,P78,PENN HILLS,MUNICIPALI,Penn Hills Municipality
323,40.462138,-79.842459,E70324,COAL HOLLOW RD OPP OLD COAL HOLLOW RD #2,Outbound,Yes,Yes,No,Bus,P78,PENN HILLS,MUNICIPALI,Penn Hills Municipality
324,40.46348,-79.844195,E70325,COAL HOLLOW RD AT CLIFF DR,Outbound,Yes,Yes,No,Bus,P78,PENN HILLS,MUNICIPALI,Penn Hills Municipality
325,40.466319,-79.846858,E70326,COAL HOLLOW RD OPP OLD COAL HOLLOW RD #1,Outbound,Yes,Yes,No,Bus,P78,PENN HILLS,MUNICIPALI,Penn Hills Municipality
326,40.473126,-79.848075,E70327,COAL HOLLOW RD AT LIME HOLLOW RD,Outbound,Yes,Yes,No,Bus,P78,PENN HILLS,MUNICIPALI,Penn Hills Municipality
327,40.476163,-79.898516,E70328,WILTSIE ST AT HIGHLAND DR FS,Both,Yes,Yes,No,Bus,74,LINCOLN-LEMINGTON-BELMAR,HOOD,Lincoln-Lemington-Belmar Neighborhood
328,40.461283,-79.888699,E70329,STRANAHAN ST AT BRUSHTON AVE,Outbound,Yes,Yes,Yes,Bus,74,HOMEWOOD NORTH,HOOD,Homewood North Neighborhood
329,40.460735,-79.888634,E70330,BRUSHTON AVE AT UPLAND ST,Outbound,Yes,No,No,Bus,74,HOMEWOOD NORTH,HOOD,Homewood North Neighborhood
330,40.461924,-79.893612,E70331,UPLAND ST AT APPLE ST,Outbound,Yes,No,No,Bus,74,HOMEWOOD NORTH,HOOD,Homewood North Neighborhood
331,40.461806,-79.893678,E70333,UPLAND ST OPP APPLE ST,Inbound,Yes,No,No,Bus,74,HOMEWOOD NORTH,HOOD,Homewood North Neighborhood
332,40.460612,-79.926524,E70335,WHITFIELD ST AT BAUM BLVD,Inbound,Yes,No,No,Bus,"74, 89",EAST LIBERTY,HOOD,East Liberty Neighborhood
333,40.475363,-79.786833,E70336,UNIVERSAL RD OPP AUSTIN ST,Inbound,Yes,No,No,Bus,P16,PENN HILLS,MUNICIPALI,Penn Hills Municipality
334,40.472024,-79.787944,E70337,UNIVERSAL RD OPP REITER RD,Inbound,Yes,No,No,Bus,P16,PENN HILLS,MUNICIPALI,Penn Hills Municipality
335,40.468441,-79.791465,E70338,UNIVERSAL RD OPP THOMPSON RUN RD,Inbound,Yes,Yes,No,Bus,P16,PENN HILLS,MUNICIPALI,Penn Hills Municipality
336,40.469086,-79.795855,E70339,UNIVERSAL RD AT HERSHEY RD FS,Inbound,Yes,No,No,Bus,P16,PENN HILLS,MUNICIPALI,Penn Hills Municipality
337,40.466917,-79.798882,E70341,UNIVERSAL RD AT DEERFIELD DR,Inbound,Yes,No,No,Bus,P16,PENN HILLS,MUNICIPALI,Penn Hills Municipality
338,40.466748,-79.798739,E70342,UNIVERSAL RD OPP DEERFIELD DR,Outbound,Yes,No,No,Bus,P16,PENN HILLS,MUNICIPALI,Penn Hills Municipality
339,40.461671,-79.889906,E70343,STRANAHAN ST AT OBERLIN ST,Inbound,Yes,No,No,Bus,74,HOMEWOOD NORTH,HOOD,Homewood North Neighborhood
340,40.493841,-79.786298,E70348,LEECHBURG RD AT CALDWELL AVE,Both,Yes,No,No,Bus,"77, P16",PENN HILLS,MUNICIPALI,Penn Hills Municipality
341,40.491754,-79.785589,E70349,LEECHBURG RD AT RAILROAD ST FS,Both,Yes,No,No,Bus,"77, P16",PENN HILLS,MUNICIPALI,Penn Hills Municipality
342,40.489241,-79.778349,E70350,UNITY TRESTLE RD AT MILLERS LN,Both,Yes,No,No,Bus,"77, P16",PLUM,BOROUGH,Plum Borough
343,40.486293,-79.771609,E70351,UNITY TRESTLE RD AT ASHLAND DR,Both,Yes,No,No,Bus,"77, P16",PLUM,BOROUGH,Plum Borough
344,40.485576,-79.769584,E70352,UNITY TRESTLE RD AT ANDERSON LN,Both,Yes,No,No,Bus,"77, P16",PLUM,BOROUGH,Plum Borough
345,40.484427,-79.767405,E70353,UNITY TRESTLE RD AT WILLOW DR,Both,Yes,No,No,Bus,"77, P16",PLUM,BOROUGH,Plum Borough
346,40.46929,-79.795573,E70355,UNIVERSAL RD OPP HERSHEY RD,Outbound,Yes,No,No,Bus,P16,PENN HILLS,MUNICIPALI,Penn Hills Municipality
347,40.490362,-79.78334,E70364,UNITY TRESTLE RD AT UNIVERSAL RD,Both,Yes,No,No,Bus,"77, P16",PLUM,BOROUGH,Plum Borough
348,40.460585,-79.925077,E70365,HIGHLAND AVE AT BAUM BLVD,Inbound,Yes,No,No,Bus,71B,EAST LIBERTY,HOOD,East Liberty Neighborhood
349,40.455528,-79.88325,E70367,FRANKSTOWN AVE AT BLACKADORE AVE,Inbound,Yes,No,No,Bus,77,HOMEWOOD NORTH,HOOD,Homewood North Neighborhood
350,40.460026,-79.927854,E70368,BEATTY ST AT BAUM BLVD,Outbound,Yes,No,No,Bus,"82, 86",EAST LIBERTY,HOOD,East Liberty Neighborhood
351,40.442434,-79.96633,E70370,ALLEQUIPPA ST AT OUTLET ST,Outbound,Yes,No,No,Bus,83,WEST OAKLAND,HOOD,West Oakland Neighborhood
352,40.441174,-79.967964,E70371,ALLEQUIPPA ST AT WHITRIDGE ST,Outbound,Yes,No,No,Bus,83,WEST OAKLAND,HOOD,West Oakland Neighborhood
353,40.445112,-79.985479,E70372,BEDFORD AVE AT ROBERTS ST,Outbound,Yes,Yes,Yes,Bus,81,CRAWFORD-ROBERTS,HOOD,Crawford-Roberts Neighborhood
354,40.443607,-79.980479,E70373,DEVILLIERS ST AT CENTRE AVE,Inbound,Yes,Yes,Yes,Bus,83,CRAWFORD-ROBERTS,HOOD,Crawford-Roberts Neighborhood
355,40.445144,-79.985324,E70374,ROBERTS ST AT BEDFORD AVE,Inbound,Yes,Yes,Yes,Bus,81,CRAWFORD-ROBERTS,HOOD,Crawford-Roberts Neighborhood
356,40.421704,-79.929701,E70376,GREENFIELD AVE AT LORETTA ST,Inbound,Yes,Yes,Yes,Bus,58,GREENFIELD,HOOD,Greenfield Neighborhood
357,40.458454,-79.908066,E70377,FIFTH AVE AT FRANKSTOWN AVE,Outbound,Yes,Yes,Yes,Bus,P10,HOMEWOOD WEST,HOOD,Homewood West Neighborhood
358,40.448263,-79.934173,E70378,FIFTH AVE OPP AIKEN AVE,Both,Yes,Yes,Yes,Bus,"28X, 71B, 71D",SQUIRREL HILL NORTH,HOOD,Squirrel Hill North Neighborhood
359,40.486119,-79.814846,E70379,LEECHBURG RD OPP RICHEY DR,Outbound,Yes,Yes,Yes,Bus,"77, P16",PENN HILLS,MUNICIPALI,Penn Hills Municipality
360,40.486212,-79.811585,E70380,LEECHBURG RD OPP #6347,Outbound,Yes,Yes,Yes,Bus,"77, P16",PENN HILLS,MUNICIPALI,Penn Hills Municipality
361,40.48693,-79.808629,E70381,LEECHBURG RD OPP CLOVERLEAF RD,Outbound,Yes,Yes,Yes,Bus,"77, P16",PENN HILLS,MUNICIPALI,Penn Hills Municipality
362,40.486656,-79.804856,E70382,LEECHBURG RD OPP COURTNEY DR,Outbound,Yes,No,No,Bus,"77, P16",PENN HILLS,MUNICIPALI,Penn Hills Municipality
363,40.487102,-79.803227,E70383,LEECHBURG RD OPP #6503,Outbound,Yes,Yes,Yes,Bus,"77, P16",PENN HILLS,MUNICIPALI,Penn Hills Municipality
364,40.488219,-79.801267,E70384,LEECHBURG RD AT ALCOMA BLVD,Outbound,Yes,No,No,Bus,"77, P16",PENN HILLS,MUNICIPALI,Penn Hills Municipality
365,40.491577,-79.792977,E70388,LEECHBURG RD OPP SUTTON DR,Outbound,Yes,No,No,Bus,"77, P16",PENN HILLS,MUNICIPALI,Penn Hills Municipality
366,40.492803,-79.790739,E70389,LEECHBURG RD OPP AUBURN ST,Outbound,Yes,No,No,Bus,"77, P16",PENN HILLS,MUNICIPALI,Penn Hills Municipality
367,40.4937,-79.78916,E70390,LEECHBURG RD OPP BARCKHOFF ST,Outbound,Yes,No,No,Bus,"77, P16",PENN HILLS,MUNICIPALI,Penn Hills Municipality
368,40.483681,-79.76594,E70391,UNITY TRESTLE RD OPP FRANCIS RD,Both,Yes,No,No,Bus,"77, P16",PLUM,BOROUGH,Plum Borough
369,40.478698,-79.762589,E70392,UNITY TRESTLE RD AT #1010,Both,Yes,No,No,Bus,"77, P16",PLUM,BOROUGH,Plum Borough
370,40.461062,-79.923987,E70394,PENN AVE AT SHERIDAN SQ,Outbound,Yes,No,No,Bus,"71C, 74, 77, 82, 86, 88, 89",EAST LIBERTY,HOOD,East Liberty Neighborhood
371,40.472002,-79.934479,E70396,MOSSFIELD ST OPP AZURE ST FS,Inbound,Yes,No,No,Bus,89,GARFIELD,HOOD,Garfield Neighborhood
372,40.471198,-79.933651,E70397,MOSSFIELD ST AT FERN ST,Inbound,Yes,No,No,Bus,89,GARFIELD,HOOD,Garfield Neighborhood
373,40.471125,-79.933392,E70398,MOSSFIELD ST OPP FERN ST,Outbound,Yes,No,No,Bus,89,STATON HEIGHTS,HOOD,Straton Heights Neighborhood
374,40.472152,-79.934467,E70399,MOSSFIELD ST AT AZURE ST,Outbound,Yes,Yes,Yes,Bus,89,STATON HEIGHTS,HOOD,Straton Heights Neighborhood
375,40.432807,-79.937362,E70400,GREENFIELD RD AT OVERLOOK DR,Inbound,Yes,Yes,Yes,Bus,58,SQUIRREL HILL SOUTH,HOOD,Squirrel Hill South Neighborhood
376,40.426218,-79.939835,E70401,WINTERBURN AVE AT GREENFIELD AVE,Inbound,Yes,Yes,Yes,Bus,58,GREENFIELD,HOOD,Greenfield Neighborhood
377,40.419136,-79.937885,E70403,BIGELOW ST AT MCCASLIN ST,Outbound,Yes,Yes,Yes,Bus,58,HAZELWOOD,HOOD,Hazelwood Neighborhood
378,40.440236,-79.965692,E70407,TERRACE ST AT ROBINSON ST,Outbound,Yes,Yes,Yes,Bus,83,WEST OAKLAND,HOOD,West Oakland Neighborhood
379,40.436052,-79.881559,E70408,SWISSVALE AVE AT JANE ST LOOP FS,Outbound,Yes,Yes,Yes,Bus,61A,WILKINSBURG,BOROUGH,Wilkinsburg Borough
380,40.484339,-79.947944,E70410,56TH ST AT BUTLER ST,Inbound,Yes,Yes,Yes,Bus,"87, 93",UPPER LAWRENCEVILLE,HOOD,Upper Lawrenceville Neighborhood
381,40.453862,-79.953412,E70411,CRAIG ST OPP BAUM BLVD FS (MOOREHEAD TOWER),Inbound,Yes,Yes,Yes,Bus,93,NORTH OAKLAND,HOOD,North Oakland Neighborhood
382,40.442612,-79.88761,E70413,SOUTH AVE AT PENNWOOD AVE,Outbound,Yes,Yes,Yes,Bus,71C,WILKINSBURG,BOROUGH,Wilkinsburg Borough
383,40.441734,-79.887238,E70414,PENNWOOD AVE AT FRANKLIN AVE,Both,Yes,Yes,Yes,Bus,"61A, 71, 71C, P71",WILKINSBURG,BOROUGH,Wilkinsburg Borough
384,40.384743,-79.823314,E70415,WARREN DR AT LINCOLN HWY FS,Both,Yes,Yes,Yes,Bus,"55, P76",NORTH VERSAILLES,TOWNSHIP,North Versailles Township
385,40.457459,-79.917296,E70416,PENN AVE AT EAST LIBERTY BLVD,Inbound,Yes,No,No,Bus,"71C, 88",LARIMER,HOOD,Larimer Neighborhood
386,40.438273,-79.879624,E70417,SWISSVALE AVE AT REBECCA AVE,Outbound,Yes,Yes,Yes,Bus,61A,WILKINSBURG,BOROUGH,Wilkinsburg Borough
387,40.464211,-79.916083,E70419,LARIMER AVE AT MAYFLOWER ST,Outbound,Yes,Yes,Yes,Bus,74,LARIMER,HOOD,Larimer Neighborhood
388,40.458631,-79.902036,E70421,FRANKSTOWN AVE AT GERRITT ST,Inbound,Yes,Yes,Yes,Bus,"77, 86",HOMEWOOD WEST,HOOD,Homewood West Neighborhood
389,40.462542,-79.924438,E70423,HIGHLAND AVE AT BROAD ST,Inbound,Yes,Yes,Yes,Bus,71B,EAST LIBERTY,HOOD,East Liberty Neighborhood
390,40.460069,-79.921522,E70425,PENN AVE AT EASTSIDE III DR,Outbound,Yes,Yes,Yes,Bus,"71C, 74, 77, 82, 86, 88, 89",SHADYSIDE,HOOD,Shadeyside Neighborhood
391,40.460269,-79.921621,E70426,PENN AVE OPP EASTSIDE III DR (TARGET),Inbound,Yes,Yes,No,Bus,"71C, 74, 77, 82, 86, 88, 89",SHADYSIDE,HOOD,Shadeyside Neighborhood
392,40.463348,-79.917198,E70427,EAST LIBERTY BLVD AT LARIMER AVE,Outbound,Yes,Yes,Yes,Bus,"74, 75, 89",LARIMER,HOOD,Larimer Neighborhood
393,40.465104,-79.919637,E70428,EAST LIBERTY BLVD AT NEGLEY RUN BLVD,Outbound,Yes,Yes,Yes,Bus,"75, 89",LARIMER,HOOD,Larimer Neighborhood
394,40.443126,-79.981125,E70429,CENTRE AVE AT HILL HOUSE,Inbound,Yes,Yes,Yes,Bus,"81, 82, 83",CRAWFORD-ROBERTS,HOOD,Crawford-Roberts Neighborhood
395,40.477011,-79.759737,E70439,SALTSBURG RD AT PIERSON RUN RD FS,Both,Yes,Yes,Yes,Bus,"77, P16",PLUM,BOROUGH,Plum Borough
396,40.483575,-79.765705,E70440,UNITY TRESTLE RD AT FRANCIS RD,Both,Yes,Yes,Yes,Bus,"77, P16",PLUM,BOROUGH,Plum Borough
397,40.46365,-79.816718,E70441,UNIVERSAL RD AT POPLAR RIDGE RD,Inbound,Yes,Yes,Yes,Bus,P16,PENN HILLS,MUNICIPALI,Penn Hills Municipality
398,40.463926,-79.818356,E70442,UNIVERSAL RD OPP WEBSTER DR,Inbound,Yes,Yes,Yes,Bus,P16,PENN HILLS,MUNICIPALI,Penn Hills Municipality
399,40.464668,-79.820251,E70443,UNIVERSAL RD AT POPLAR RIDGE RD FS,Inbound,Yes,No,No,Bus,P16,PENN HILLS,MUNICIPALI,Penn Hills Municipality
400,40.466247,-79.822614,E70444,UNIVERSAL RD OPP #150,Inbound,Yes,No,No,Bus,P16,PENN HILLS,MUNICIPALI,Penn Hills Municipality
401,40.463848,-79.800971,E70445,UNIVERSAL RD OPP ANTHON DR,Outbound,Yes,No,No,Bus,P16,PENN HILLS,MUNICIPALI,Penn Hills Municipality
402,40.472167,-79.819489,E70446,FRANKSTOWN RD OPP MUNICIPAL BLDG,Outbound,Yes,No,No,Bus,"77, P16",PENN HILLS,MUNICIPALI,Penn Hills Municipality
403,40.48376,-79.819259,E70447,FRANKSTOWN RD AT PETERMANS LN,Outbound,Yes,No,No,Bus,"77, P16",PENN HILLS,MUNICIPALI,Penn Hills Municipality
404,40.481046,-79.802462,E70448,SALTSBURG RD OPP ALCOMA GOLF CLUB,Inbound,Yes,No,No,Bus,77,PENN HILLS,MUNICIPALI,Penn Hills Municipality
405,40.46376,-79.851627,E70449,FRANKSTOWN RD AT FRANKSTOWN GARDENS,Outbound,Yes,No,No,Bus,77,PENN HILLS,MUNICIPALI,Penn Hills Municipality
406,40.428627,-79.796784,E70450,MONROEVILLE MALL AT WEST COURT ENTRANCE,Both,Yes,No,No,Bus,"67, 68, P68",MONROEVILLE,MUNICIPALI,Monroeville Municipality
407,40.483162,-79.948358,E70451,LAWRENCEVILLE SHOPPING CENTER,Both,Yes,No,No,Bus,"87, 93",UPPER LAWRENCEVILLE,HOOD,Upper Lawrenceville Neighborhood
408,40.454353,-79.961343,E70452,MILWAUKEE ST AT ORION ST,Inbound,Yes,No,No,Bus,83,UPPER HILL,HOOD,Upper Hill Neighborhood
409,40.453983,-79.913074,E70453,FIFTH AVE AT PENN AVE FS,Both,Yes,No,No,Bus,"28X, 71D",SHADYSIDE,HOOD,Shadeyside Neighborhood
410,40.45383,-79.913221,E70454,FIFTH AVE AT HASTINGS ST FS (PENN AVE),Both,Yes,No,No,Bus,"28X, 71D",POINT BREEZE,HOOD,Point Breese Neighborhood
411,40.46142,-79.892032,E70455,UPLAND ST OPP STERRETT ST STEPS NS,Outbound,Yes,No,No,Bus,74,HOMEWOOD NORTH,HOOD,Homewood North Neighborhood
412,40.402233,-79.867405,E70589,7TH ST AT BRADDOCK AVE,Inbound,Yes,Yes,Yes,Bus,"61A, 61B",BRADDOCK,BOROUGH,Braddock Borough
413,40.403256,-79.868739,E70590,BRADDOCK AVE AT 6TH ST,Both,Yes,Yes,Yes,Bus,"59, 61A, 61B",BRADDOCK,BOROUGH,Braddock Borough
414,40.403236,-79.868433,E70591,BRADDOCK AVE AT 6TH ST,Both,Yes,No,No,Bus,"59, 61A, 61B",BRADDOCK,BOROUGH,Braddock Borough
415,40.437545,-79.760083,E70736,UPMC EAST DRIVE OPP HOSPITAL,Inbound,Yes,Yes,Yes,Bus,67,MONROEVILLE,MUNICIPALI,Monroeville Municipality
416,40.437356,-79.760191,E70737,UPMC EAST DRIVE AT HOSPITAL,Outbound,Yes,Yes,Yes,Bus,67,MONROEVILLE,MUNICIPALI,Monroeville Municipality
417,40.539369,-79.830557,E70738,ALPHA DR E AT FREEPORT RD FS,Outbound,Yes,Yes,Yes,Bus,"P16, P78",HARMAR,TOWNSHIP,Harmar Township
418,40.461884,-79.890722,E70739,STRANAHAN ST AT OAKDENE ST,Inbound,Yes,Yes,Yes,Bus,74,HOMEWOOD NORTH,HOOD,Homewood North Neighborhood
419,40.462459,-79.890797,E70740,OAKDENE ST OPP EVERTON ST,Inbound,Yes,Yes,Yes,Bus,74,LINCOLN-LEMINGTON-BELMAR,HOOD,Lincoln-Lemington-Belmar Neighborhood
420,40.462766,-79.891604,E70741,EVERTON ST AT SILVERTON ST,Inbound,Yes,Yes,Yes,Bus,74,LINCOLN-LEMINGTON-BELMAR,HOOD,Lincoln-Lemington-Belmar Neighborhood
421,40.463349,-79.89167,E70742,SILVERTON ST OPP TILDEN ST,Inbound,Yes,Yes,No,Bus,74,LINCOLN-LEMINGTON-BELMAR,HOOD,Lincoln-Lemington-Belmar Neighborhood
422,40.463945,-79.893548,E70743,TILDEN ST AT #7182,Inbound,Yes,Yes,Yes,Bus,74,LINCOLN-LEMINGTON-BELMAR,HOOD,Lincoln-Lemington-Belmar Neighborhood
423,40.464507,-79.894953,E70744,TILDEN ST AT #7110,Inbound,Yes,Yes,Yes,Bus,74,LINCOLN-LEMINGTON-BELMAR,HOOD,Lincoln-Lemington-Belmar Neighborhood
424,40.464969,-79.892807,E70745,VANN RD AT MINGO ST,Inbound,Yes,Yes,Yes,Bus,74,LINCOLN-LEMINGTON-BELMAR,HOOD,Lincoln-Lemington-Belmar Neighborhood
425,40.464617,-79.89107,E70746,MINGO ST AT OAKDENE ST,Inbound,Yes,No,No,Bus,74,LINCOLN-LEMINGTON-BELMAR,HOOD,Lincoln-Lemington-Belmar Neighborhood
426,40.46508,-79.892587,E70747,MINGO ST AT VANN RD,Outbound,Yes,No,No,Bus,74,LINCOLN-LEMINGTON-BELMAR,HOOD,Lincoln-Lemington-Belmar Neighborhood
427,40.464685,-79.895086,E70748,TILDEN ST OPP #7110,Outbound,Yes,No,No,Bus,74,LINCOLN-LEMINGTON-BELMAR,HOOD,Lincoln-Lemington-Belmar Neighborhood
428,40.463861,-79.893618,E70749,TILDEN ST OPP #7182,Outbound,Yes,Yes,No,Bus,74,LINCOLN-LEMINGTON-BELMAR,HOOD,Lincoln-Lemington-Belmar Neighborhood
429,40.463415,-79.891875,E70750,TILDEN ST AT SILVERTON ST,Outbound,Yes,Yes,No,Bus,74,LINCOLN-LEMINGTON-BELMAR,HOOD,Lincoln-Lemington-Belmar Neighborhood
430,40.462829,-79.891807,E70751,SILVERTON ST AT EVERTON ST,Outbound,Yes,Yes,No,Bus,74,LINCOLN-LEMINGTON-BELMAR,HOOD,Lincoln-Lemington-Belmar Neighborhood
431,40.462523,-79.891002,E70752,EVERTON ST AT OAKDENE ST,Outbound,Yes,Yes,No,Bus,74,LINCOLN-LEMINGTON-BELMAR,HOOD,Lincoln-Lemington-Belmar Neighborhood
432,40.46195,-79.890928,E70753,OAKDENE ST AT STRANAHAN ST,Outbound,Yes,Yes,No,Bus,74,HOMEWOOD NORTH,HOOD,Homewood North Neighborhood
433,40.461623,-79.890136,E70754,STRANAHAN ST OPP OBERLIN ST,Outbound,Yes,Yes,No,Bus,74,HOMEWOOD NORTH,HOOD,Homewood North Neighborhood
434,40.48825,-79.921462,E70756,BUTLER ST OPP GALLATIN ST,Outbound,Yes,Yes,No,Bus,87,MORNINGSIDE,HOOD,Morningside Neighborhood
435,40.488851,-79.9242,E70757,BUTLER ST OPP JANCEY ST (STEPS),Outbound,Yes,Yes,No,Bus,87,MORNINGSIDE,HOOD,Morningside Neighborhood
436,40.488968,-79.935817,E70758,BUTLER ST OPP LIVONIA ST,Outbound,Yes,Yes,No,Bus,87,MORNINGSIDE,HOOD,Morningside Neighborhood
437,40.488769,-79.935956,E70759,BUTLER ST AT LIVONIA ST,Inbound,Yes,Yes,No,Bus,87,STATON HEIGHTS,HOOD,Straton Heights Neighborhood
438,40.488774,-79.924383,E70760,BUTLER ST AT JANCEY ST (STEPS),Inbound,Yes,Yes,No,Bus,87,MORNINGSIDE,HOOD,Morningside Neighborhood
439,40.488173,-79.92174,E70761,BUTLER ST AT GALLATIN ST,Inbound,Yes,Yes,No,Bus,87,MORNINGSIDE,HOOD,Morningside Neighborhood
440,40.465594,-79.913456,E70762,LARMIER AVE AT WINSLOW ST,Outbound,Yes,Yes,No,Bus,74,LARIMER,HOOD,Larimer Neighborhood
441,40.466059,-79.912283,E70763,LARIMER AVE AT SHETLAND ST,Outbound,Yes,Yes,No,Bus,74,LARIMER,HOOD,Larimer Neighborhood
442,40.412044,-79.881159,E70764,HAWKINS AVE AT RANKIN BLVD,Both,Yes,Yes,No,Bus,"59, 71, P7",RANKIN,BOROUGH,Rankin Borough
443,40.411573,-79.877131,E70765,4TH AVE AT DUQUESNE ST,Both,Yes,Yes,No,Bus,"59, 71, P7",RANKIN,BOROUGH,Rankin Borough
444,40.412745,-79.879407,E70766,4TH AVE AT ANTISBURY ST,Both,Yes,No,No,Bus,"59, 71, P7",RANKIN,BOROUGH,Rankin Borough
445,40.413091,-79.880476,E70767,4TH AVE AT HAWKINS AVE,Both,Yes,No,No,Bus,"59, 71, P7",RANKIN,BOROUGH,Rankin Borough
446,40.420069,-79.889146,E70772,WASHINGTON ST AT MONONGAHELA AVE,Both,Yes,No,No,Bus,"59, P7, P71",SWISSVALE,BOROUGH,Swissvale Borough
447,40.421197,-79.886125,E70773,WASHINGTON ST AT NOBLE ST,Both,Yes,No,No,Bus,"59, P7, P71",SWISSVALE,BOROUGH,Swissvale Borough
448,40.452939,-79.965265,E70777,BEDFORD AVE AT HERRON AVE FS,Inbound,Yes,No,No,Bus,83,BEDFORD DWELLINGS,HOOD,Bedford Dwellings Neighborhood
449,40.452788,-79.96764,E70778,BEDFORD AVE OPP WANDLESS ST,Inbound,Yes,No,No,Bus,83,BEDFORD DWELLINGS,HOOD,Bedford Dwellings Neighborhood
450,40.452054,-79.969375,E70779,BEDFORD AVE OPP MORGAN ST,Inbound,Yes,Yes,No,Bus,83,BEDFORD DWELLINGS,HOOD,Bedford Dwellings Neighborhood
451,40.450896,-79.972112,E70780,BEDFORD AVE AT CHAUNCEY DR,Inbound,Yes,Yes,No,Bus,83,BEDFORD DWELLINGS,HOOD,Bedford Dwellings Neighborhood
452,40.450217,-79.973751,E70781,BEDFORD AVE OPP DUFF ST,Inbound,Yes,Yes,Yes,Bus,83,BEDFORD DWELLINGS,HOOD,Bedford Dwellings Neighborhood
453,40.44949,-79.975426,E70782,BEDFORD AVE AT SOMERS DR,Inbound,Yes,Yes,Yes,Bus,83,BEDFORD DWELLINGS,HOOD,Bedford Dwellings Neighborhood
454,40.448282,-79.978294,E70783,BEDFORD AVE AT MEMORY LN,Inbound,Yes,Yes,Yes,Bus,83,BEDFORD DWELLINGS,HOOD,Bedford Dwellings Neighborhood
455,40.447194,-79.980863,E70784,BEDFORD AVE OPP ERIN ST,Inbound,Yes,Yes,Yes,Bus,83,BEDFORD DWELLINGS,HOOD,Bedford Dwellings Neighborhood
456,40.446569,-79.98237,E70785,BEDFORD AVE OPP DEVILLIERS ST,Inbound,Yes,Yes,Yes,Bus,83,BEDFORD DWELLINGS,HOOD,Bedford Dwellings Neighborhood
457,40.445699,-79.981978,E70786,DEVILLIERS ST AT WEBSTER AVE,Inbound,Yes,Yes,Yes,Bus,83,CRAWFORD-ROBERTS,HOOD,Crawford-Roberts Neighborhood
458,40.446422,-79.982312,E70787,DEVILLIERS ST AT BEDFORD AVE,Outbound,Yes,Yes,Yes,Bus,83,MIDDLE HILL,HOOD,Middle Hill Neighborhood
459,40.447001,-79.980995,E70788,BEDFORD AVE AT ERIN ST,Outbound,Yes,Yes,Yes,Bus,83,MIDDLE HILL,HOOD,Middle Hill Neighborhood
460,40.448088,-79.978424,E70789,BEDFORD AVE AT KIRKPATRICK ST,Outbound,Yes,Yes,Yes,Bus,83,MIDDLE HILL,HOOD,Middle Hill Neighborhood
461,40.449312,-79.975551,E70790,BEDFORD AVE AT SOMERS ST,Outbound,Yes,Yes,Yes,Bus,83,MIDDLE HILL,HOOD,Middle Hill Neighborhood
462,40.450024,-79.973883,E70791,BEDFORD AVE AT DUFF ST,Outbound,Yes,Yes,Yes,Bus,83,MIDDLE HILL,HOOD,Middle Hill Neighborhood
463,40.450667,-79.972325,E70792,BEDFORD AVE AT WATT LN,Outbound,Yes,Yes,Yes,Bus,83,BEDFORD DWELLINGS,HOOD,Bedford Dwellings Neighborhood
464,40.45186,-79.969505,E70793,BEDFORD AVE AT MORGAN ST,Outbound,Yes,Yes,Yes,Bus,83,BEDFORD DWELLINGS,HOOD,Bedford Dwellings Neighborhood
465,40.4526,-79.967766,E70794,BEDFORD AVE AT WANDLESS ST,Outbound,Yes,Yes,Yes,Bus,83,MIDDLE HILL,HOOD,Middle Hill Neighborhood
466,40.452824,-79.965335,E70795,BEDFORD AVE AT HERRON AVE,Outbound,Yes,Yes,Yes,Bus,83,MIDDLE HILL,HOOD,Middle Hill Neighborhood
467,40.444469,-79.975735,E70797,KIRKPATRICK ST AT ROSE ST,Outbound,Yes,Yes,Yes,Bus,81,MIDDLE HILL,HOOD,Middle Hill Neighborhood
468,40.440014,-79.969827,E70798,BENTLEY DR AT OAK HILL DR,Outbound,Yes,Yes,Yes,Bus,81,TERRACE VILLAGE,HOOD,Terrace Village Neighborhood
469,40.401147,-79.865877,E70799,BRADDOCK AVE OPP LIBRARY ST,Both,Yes,Yes,Yes,Bus,"59, 61A",BRADDOCK,BOROUGH,Braddock Borough
470,40.460828,-79.84241,E70800,COAL HOLLOW RD AT FRANKSTOWN RD FS,Outbound,Yes,Yes,Yes,Bus,P78,PENN HILLS,MUNICIPALI,Penn Hills Municipality
471,40.451494,-79.908044,E70801,PENN AVE AT DALLAS AVE,Inbound,Yes,Yes,Yes,Bus,71C,POINT BREEZE NORTH,HOOD,Point Breeze South Neighborhood
472,40.451436,-79.90834,E70802,PENN AVE AT DALLAS AVE,Outbound,Yes,Yes,Yes,Bus,71C,POINT BREEZE,HOOD,Point Breese Neighborhood
473,40.451353,-79.951895,E70804,CRAIG ST AT CENTRE AVE FS,Both,Yes,Yes,Yes,Bus,"54, 71A, 71C, 93",NORTH OAKLAND,HOOD,North Oakland Neighborhood
474,40.471019,-79.925123,E70805,STANTON AVE AT MELLON ST,Inbound,Yes,Yes,Yes,Bus,75,EAST LIBERTY,HOOD,East Liberty Neighborhood
475,40.470352,-79.923228,E70806,STANTON AVE AT EUCLID AVE,Inbound,Yes,Yes,Yes,Bus,75,EAST LIBERTY,HOOD,East Liberty Neighborhood
476,40.46964,-79.921202,E70807,STANTON AVE AT HIGHLAND AVE,Inbound,Yes,Yes,Yes,Bus,75,EAST LIBERTY,HOOD,East Liberty Neighborhood
477,40.4704,-79.922937,E70809,STANTON AVE AT EUCLID AVE,Outbound,Yes,Yes,Yes,Bus,75,HIGHLAND PARK,HOOD,Highland Park Neighborhood
478,40.471066,-79.924833,E70810,STANTON AVE AT MELLON ST,Outbound,Yes,Yes,Yes,Bus,75,HIGHLAND PARK,HOOD,Highland Park Neighborhood
479,40.471539,-79.926161,E70811,STANTON AVE AT NEGLEY AVE,Outbound,Yes,Yes,Yes,Bus,75,HIGHLAND PARK,HOOD,Highland Park Neighborhood
480,40.465903,-79.921966,E70812,EAST LIBERTY BLVD AT HIGHLAND AVE,Outbound,Yes,No,No,Bus,"75, 89",EAST LIBERTY,HOOD,East Liberty Neighborhood
481,40.475653,-79.929877,E70813,CHISLETT ST AT WELLESLEY AVE,Outbound,Yes,Yes,Yes,Bus,"75, 87",MORNINGSIDE,HOOD,Morningside Neighborhood
482,40.458708,-79.925206,E70814,HIGHLAND AVE AT ELLSWORTH AVE STEPS,Inbound,Yes,Yes,Yes,Bus,71B,SHADYSIDE,HOOD,Shadeyside Neighborhood
483,40.458701,-79.925026,E70815,HIGHLAND AVE AT ELLSWORTH AVE STEPS,Outbound,Yes,Yes,Yes,Bus,71B,SHADYSIDE,HOOD,Shadeyside Neighborhood
484,40.391079,-79.765349,E70816,FORBES RD AT HAYMAKER RD FS,Outbound,Yes,Yes,Yes,Bus,"69, P69",MONROEVILLE,MUNICIPALI,Monroeville Municipality
485,40.391433,-79.757695,E70817,FORBES RD AT CK STUDIOS DRIVEWAY,Outbound,Yes,Yes,Yes,Bus,"69, P69",TRAFFORD,BOROUGH,Trafford Borough
486,40.388967,-79.75044,E70818,FORBES RD OPP MEADOW ST,Outbound,Yes,Yes,Yes,Bus,"69, P69",,,
487,40.388257,-79.748469,E70819,7TH ST EXT OPP TIMBER DR,Outbound,Yes,Yes,Yes,Bus,"69, P69",,,
488,40.38642,-79.752249,E70820,7TH ST AT PROSPECT AVE,Outbound,Yes,Yes,Yes,Bus,"69, P69",,,
489,40.387473,-79.756857,E70821,7TH ST AT FOREST AVE,Outbound,Yes,Yes,Yes,Bus,"69, P69",,,
490,40.386963,-79.75765,E70822,FOREST AVE AT 6TH ST,Outbound,Yes,Yes,Yes,Bus,"69, P69",,,
491,40.385771,-79.759016,E70823,FOREST AVE AT DUQUESNE AVE,Outbound,Yes,Yes,Yes,Bus,"69, P69",,,
492,40.385999,-79.760619,E70824,5TH ST AT BRINTON AVE,Outbound,Yes,Yes,Yes,Bus,"69, P69",,,
493,40.385265,-79.761277,E70825,VIADUCT WAY TERMINAL,Both,Yes,Yes,Yes,Bus,"69, P69",,,
494,40.3856,-79.760823,E70826,BRINTON AVE AT 5TH ST NS,Inbound,Yes,Yes,Yes,Bus,"69, P69",,,
495,40.387331,-79.757011,E70827,FOREST AVE AT 7TH ST,Inbound,Yes,Yes,Yes,Bus,"69, P69",,,
496,40.388053,-79.748372,E70828,7TH ST EXT AT TIMBER DR,Inbound,Yes,Yes,Yes,Bus,"69, P69",,,
497,40.389042,-79.750183,E70829,FORBES RD AT MEADOW ST,Inbound,Yes,Yes,Yes,Bus,"69, P69",,,
498,40.39134,-79.757448,E70830,FORBES RD OPP CK STUDIOS DRIVEWAY,Inbound,Yes,Yes,Yes,Bus,"69, P69",TRAFFORD,BOROUGH,Trafford Borough
499,40.407826,-79.926471,E70831,BROADVIEW DR AT JOHNSTON AVE,Both,Yes,Yes,Yes,Bus,93,GLEN HAZEL,HOOD,Glen Hazel Neighborhood
500,40.436235,-79.962192,E70837,CRAFT AVE AT HAMLET PL FS,Inbound,Yes,Yes,Yes,Bus,"58, 93",SOUTH OAKLAND,HOOD,South Oakland Neighborhood
501,40.453889,-79.953243,E70838,CRAIG ST AT BAUM BLVD,Outbound,Yes,Yes,Yes,Bus,93,NORTH OAKLAND,HOOD,North Oakland Neighborhood
502,40.479655,-79.922166,E70839,MELLON TERRACE AT N NEGLEY AVE,Both,Yes,Yes,Yes,Bus,71B,HIGHLAND PARK,HOOD,Highland Park Neighborhood
503,40.411522,-79.942932,E70840,HAZELWOOD AVE AT MONONGAHELA ST,Outbound,Yes,Yes,Yes,Bus,93,HAZELWOOD,HOOD,Hazelwood Neighborhood
504,40.411751,-79.941835,E70841,HAZELWOOD AVE OPP SYLVAN AVE,Outbound,Yes,Yes,Yes,Bus,93,HAZELWOOD,HOOD,Hazelwood Neighborhood
505,40.412293,-79.94048,E70842,HAZELWOOD AVE OPP GLADSTONE ST,Outbound,Yes,Yes,Yes,Bus,93,HAZELWOOD,HOOD,Hazelwood Neighborhood
506,40.413341,-79.939419,E70843,HAZELWOOD AVE AT NANSEN ST,Outbound,Yes,Yes,Yes,Bus,93,HAZELWOOD,HOOD,Hazelwood Neighborhood
507,40.414606,-79.939228,E70844,HAZELWOOD AVE AT GIDDINGS ST,Outbound,Yes,Yes,Yes,Bus,93,HAZELWOOD,HOOD,Hazelwood Neighborhood
508,40.415874,-79.938549,E70846,HAZELWOOD AVE AT SABINA ST,Outbound,Yes,Yes,Yes,Bus,93,HAZELWOOD,HOOD,Hazelwood Neighborhood
509,40.41785,-79.936903,E70847,HAZELWOOD AVE OPP EMAHLEA ST,Outbound,Yes,No,No,Bus,93,HAZELWOOD,HOOD,Hazelwood Neighborhood
510,40.419434,-79.934039,E70848,HAZELWOOD AVE AT CALVARY ST,Outbound,Yes,Yes,Yes,Bus,93,HAZELWOOD,HOOD,Hazelwood Neighborhood
511,40.418063,-79.936844,E70849,HAZELWOOD AVE AT EMAHLEA ST,Inbound,Yes,No,No,Bus,93,HAZELWOOD,HOOD,Hazelwood Neighborhood
512,40.4156,-79.939138,E70850,HAZELWOOD AVE AT WINTERBURN AVE,Inbound,Yes,Yes,No,Bus,93,HAZELWOOD,HOOD,Hazelwood Neighborhood
513,40.413537,-79.939543,E70852,HAZELWOOD AVE OPP NANSEN ST,Inbound,Yes,No,No,Bus,93,HAZELWOOD,HOOD,Hazelwood Neighborhood
514,40.412483,-79.940341,E70853,HAZELWOOD AVE AT GLADSTONE ST,Inbound,Yes,No,No,Bus,93,HAZELWOOD,HOOD,Hazelwood Neighborhood
515,40.411941,-79.941696,E70854,HAZELWOOD AVE AT SYLVAN AVE,Inbound,Yes,No,No,Bus,93,HAZELWOOD,HOOD,Hazelwood Neighborhood
516,40.411679,-79.942735,E70855,HAZELWOOD AVE AT MONONGAHELA ST,Inbound,Yes,No,No,Bus,93,HAZELWOOD,HOOD,Hazelwood Neighborhood
517,40.411354,-79.944616,E70856,HAZELWOOD AVE AT SECOND AVE,Inbound,Yes,No,No,Bus,93,HAZELWOOD,HOOD,Hazelwood Neighborhood
518,40.47725,-79.78546,E70857,UNIVERSAL RD AT SALTSBURG RD FS,Inbound,Yes,No,No,Bus,P16,PENN HILLS,MUNICIPALI,Penn Hills Municipality
519,40.402466,-79.868611,E70858,BRADDOCK TERMINAL,Both,Yes,No,No,Bus,"61A, 61B",BRADDOCK,BOROUGH,Braddock Borough
520,40.456559,-79.970028,E70859,BRERETON ST AT 30TH ST,Inbound,Yes,No,No,Bus,54,POLISH HILL,HOOD,Polish Hill Neighborhood
521,40.437009,-79.959365,E70860,HALKET ST AT LOUISA ST,Outbound,Yes,No,No,Bus,58,CENTRAL OAKLAND,HOOD,Central Oakland Neighborhood
522,40.464086,-79.900959,E70861,LINCOLN AVE OPP DEARY ST,Outbound,Yes,No,No,Bus,"82, P17",HOMEWOOD WEST,HOOD,Homewood West Neighborhood
523,40.430209,-79.917737,E70862,TILBURY AVE AT NICHOLSON ST,Inbound,Yes,No,No,Bus,74,SQUIRREL HILL SOUTH,HOOD,Squirrel Hill South Neighborhood
524,40.43156,-79.917999,E70863,TILBURY AVE AT WALDRON ST,Inbound,Yes,No,No,Bus,74,SQUIRREL HILL SOUTH,HOOD,Squirrel Hill South Neighborhood
525,40.427856,-79.916261,E70864,FORWARD AVE AT BEECHWOOD BLVD,Outbound,Yes,No,No,Bus,74,SQUIRREL HILL SOUTH,HOOD,Squirrel Hill South Neighborhood
526,40.442137,-79.978396,E70865,REED ST AT ELMORE ST,Inbound,Yes,No,No,Bus,81,TERRACE VILLAGE,HOOD,Terrace Village Neighborhood
527,40.442608,-79.977331,E70866,REED ST AT ADDISON ST,Inbound,Yes,No,No,Bus,81,TERRACE VILLAGE,HOOD,Terrace Village Neighborhood
528,40.443102,-79.976224,E70867,REED ST AT ELMORE ST,Inbound,Yes,No,No,Bus,81,TERRACE VILLAGE,HOOD,Terrace Village Neighborhood
529,40.443911,-79.976652,E70868,ELMORE ST AT ROSE ST,Inbound,Yes,Yes,Yes,Bus,81,TERRACE VILLAGE,HOOD,Terrace Village Neighborhood
530,40.443661,-79.976611,E70869,ELMORE ST AT ROSE ST FS,Outbound,Yes,Yes,Yes,Bus,81,TERRACE VILLAGE,HOOD,Terrace Village Neighborhood
531,40.442792,-79.977197,E70870,REED ST AT ADDISON ST,Outbound,Yes,Yes,Yes,Bus,81,TERRACE VILLAGE,HOOD,Terrace Village Neighborhood
532,40.44232,-79.978258,E70871,REED ST OPP ELMORE ST,Outbound,Yes,Yes,Yes,Bus,81,TERRACE VILLAGE,HOOD,Terrace Village Neighborhood
533,40.388297,-79.822004,E70872,GREENSBURG PIKE AT VERSAILLES CASTLE APTS,Inbound,Yes,No,No,Bus,59,NORTH VERSAILLES,TOWNSHIP,North Versailles Township
534,40.392853,-79.819069,E70873,GREENSBURG PIKE AT CENTRAL AVE FS,Inbound,Yes,No,No,Bus,59,NORTH VERSAILLES,TOWNSHIP,North Versailles Township
535,40.39673,-79.821202,E70874,GREENSBURG PIKE AT LLOYD AVE,Inbound,Yes,No,No,Bus,59,NORTH VERSAILLES,TOWNSHIP,North Versailles Township
536,40.397679,-79.82102,E70875,GREENSBURG PIKE AT KLINE AVE,Inbound,Yes,Yes,Yes,Bus,59,NORTH VERSAILLES,TOWNSHIP,North Versailles Township
537,40.402293,-79.8239,E70876,GREENSBURG PIKE OPP 1ST ST,Inbound,Yes,Yes,Yes,Bus,59,NORTH VERSAILLES,TOWNSHIP,North Versailles Township
538,40.402236,-79.824035,E70877,GREENSBURG PIKE AT 1ST ST FS,Outbound,Yes,Yes,Yes,Bus,59,NORTH VERSAILLES,TOWNSHIP,North Versailles Township
539,40.397875,-79.821142,E70878,GREENSBURG PIKE AT KLINE AVE FS,Outbound,Yes,Yes,Yes,Bus,59,NORTH VERSAILLES,TOWNSHIP,North Versailles Township
540,40.396925,-79.821326,E70879,GREENSBURG PIKE OPP LLOYD AVE,Outbound,Yes,Yes,Yes,Bus,59,NORTH VERSAILLES,TOWNSHIP,North Versailles Township
541,40.392653,-79.819237,E70880,GREENSBURG PIKE AT CENTRAL AVE FS,Outbound,Yes,Yes,Yes,Bus,59,NORTH VERSAILLES,TOWNSHIP,North Versailles Township
542,40.388512,-79.821974,E70881,GREENSBURG PIKE OPP VERSAILLES CASTLE APTS,Outbound,Yes,Yes,Yes,Bus,59,NORTH VERSAILLES,TOWNSHIP,North Versailles Township
543,40.42551,-79.926873,E70882,BEECHWOOD BLVD OPP MONITOR ST FS,Outbound,Yes,Yes,Yes,Bus,"52L, 53L",GREENFIELD,HOOD,Greenfield Neighborhood
544,40.423101,-79.887178,E70883,CHURCH ST AT BRADDOCK AVE NS,Inbound,Yes,Yes,Yes,Bus,"71, P71",SWISSVALE,BOROUGH,Swissvale Borough
545,40.409216,-79.866855,E70885,4TH ST AT HAWKINS AVE,Inbound,Yes,Yes,Yes,Bus,59,NORTH BRADDOCK,BOROUGH,North Braddock Borough
546,40.43251,-79.936301,E70886,HOBART RD AT GREENFIELD RD FS,Both,Yes,Yes,Yes,Bus,"65, 93",SQUIRREL HILL SOUTH,HOOD,Squirrel Hill South Neighborhood
547,40.419767,-79.929093,E70887,HAZELWOOD AVE AT GREENFIELD AVE,Inbound,Yes,Yes,Yes,Bus,93,HAZELWOOD,HOOD,Hazelwood Neighborhood
548,40.434563,-79.924669,E70888,BEACON ST OPP MUNHALL RD,Outbound,Yes,Yes,Yes,Bus,93,SQUIRREL HILL SOUTH,HOOD,Squirrel Hill South Neighborhood
549,40.434191,-79.927496,E70889,BEACON ST AT WIGHTMAN ST,Outbound,Yes,Yes,Yes,Bus,93,SQUIRREL HILL SOUTH,HOOD,Squirrel Hill South Neighborhood
550,40.40322,-79.831194,E70892,BRADDOCK AVE OPP KEYSTONE COMMONS PORTAL 9 FS,Inbound,Yes,Yes,Yes,Bus,"59, 68, 69, P68, P69",TURTLE CREEK,BOROUGH,Turtle Creek Borough
551,40.457737,-79.864603,E70893,ROBINSON BLVD AT W'BURG-PENN JOINT WATER AUTHOR,Inbound,Yes,Yes,Yes,Bus,79,WILKINSBURG,BOROUGH,Wilkinsburg Borough
552,40.457703,-79.864894,E70894,ROBINSON BLVD OPP W'BURG-PENN JOINT WATER AUTHOR,Outbound,Yes,Yes,Yes,Bus,79,WILKINSBURG,BOROUGH,Wilkinsburg Borough
553,40.427484,-79.928363,E70895,BEECHWOOD BLVD AT #3735,Outbound,Yes,No,No,Bus,"52L, 53L",GREENFIELD,HOOD,Greenfield Neighborhood
554,40.487995,-79.920364,E70896,BUTLER ST AT BAKER ST FS,Outbound,Yes,No,No,Bus,87,MORNINGSIDE,HOOD,Morningside Neighborhood
555,40.471686,-79.94016,E15100,SCHENLEY AVE OPP COLUMBO ST,Outbound,Yes,No,No,Bus,89,GARFIELD,HOOD,Garfield Neighborhood
556,40.420398,-79.898393,E15110,COMMERCIAL ST AT BLACKHAWK ST,Both,Yes,No,No,Bus,"71, P71",SWISSVALE,BOROUGH,Swissvale Borough
557,40.420848,-79.899368,E15120,COMMERCIAL ST AT HOMESTEAD ST,Both,Yes,No,No,Bus,"71, P71",SWISSHELM PARK,HOOD,Swisselm Park Neighborhood
558,40.449488,-79.761802,E15200,CONNECTING RD AT HAYMAKER RD,Inbound,Yes,Yes,Yes,Bus,77,MONROEVILLE,MUNICIPALI,Monroeville Municipality
559,40.40809,-79.867131,E15440,COREY AVE AT 4TH ST,Inbound,Yes,Yes,Yes,Bus,59,BRADDOCK,BOROUGH,Braddock Borough
560,40.407464,-79.866577,E15460,COREY AVE AT 5TH ST,Inbound,Yes,Yes,Yes,Bus,59,BRADDOCK,BOROUGH,Braddock Borough
561,40.407596,-79.866936,E15470,COREY AVE AT 5TH ST,Outbound,Yes,Yes,Yes,Bus,59,BRADDOCK,BOROUGH,Braddock Borough
562,40.403992,-79.869223,E15480,COREY AVE AT BRADDOCK AVE,Both,Yes,Yes,Yes,Bus,"59, 61A, 61B",BRADDOCK,BOROUGH,Braddock Borough
563,40.472356,-79.919711,E29190,HIGHLAND AVE AT WELLESLEY AVE,Outbound,Yes,Yes,Yes,Bus,71B,HIGHLAND PARK,HOOD,Highland Park Neighborhood
564,40.405935,-79.866317,E15490,COREY AVE AT CENTER ST,Inbound,Yes,Yes,Yes,Bus,59,BRADDOCK,BOROUGH,Braddock Borough
565,40.457396,-79.925279,E29210,HIGHLAND AVE AT ALDER ST,Inbound,Yes,Yes,Yes,Bus,71B,SHADYSIDE,HOOD,Shadeyside Neighborhood
566,40.406169,-79.866332,E15500,COREY AVE AT CENTER ST,Outbound,Yes,Yes,Yes,Bus,59,BRADDOCK,BOROUGH,Braddock Borough
567,40.474394,-79.918757,E29220,HIGHLAND AVE OPP BRYANT CT,Outbound,Yes,Yes,Yes,Bus,71B,HIGHLAND PARK,HOOD,Highland Park Neighborhood
568,40.404747,-79.867738,E15510,COREY AVE AT MARGARETTA ST,Inbound,Yes,Yes,Yes,Bus,59,BRADDOCK,BOROUGH,Braddock Borough
569,40.467972,-79.921761,E29240,HIGHLAND AVE OPP HAYS ST,Outbound,Yes,Yes,Yes,Bus,"71B, 75",EAST LIBERTY,HOOD,East Liberty Neighborhood
570,40.405146,-79.86741,E15520,COREY AVE AT MILLS AVE,Outbound,Yes,Yes,Yes,Bus,59,BRADDOCK,BOROUGH,Braddock Borough
571,40.437582,-79.963825,E15580,CRAFT AVE AT FIFTH AVE FS (DIALYSIS CTR),Inbound,Yes,No,No,Bus,"58, 93",SOUTH OAKLAND,HOOD,South Oakland Neighborhood
572,40.436972,-79.962841,E15585,CRAFT AVE AT FORBES AVE,Outbound,Yes,Yes,Yes,Bus,93,SOUTH OAKLAND,HOOD,South Oakland Neighborhood
573,40.447063,-79.949159,E15620,CRAIG ST AT FIFTH AVE,Both,Yes,Yes,Yes,Bus,"54, 71A, 71C, 93",NORTH OAKLAND,HOOD,North Oakland Neighborhood
574,40.454302,-79.953506,E15640,CRAIG ST AT BAUM BLVD FS,Inbound,Yes,Yes,Yes,Bus,77,NORTH OAKLAND,HOOD,North Oakland Neighborhood
575,40.449852,-79.950985,E15650,CRAIG ST AT BAYARD ST,Both,Yes,Yes,Yes,Bus,"54, 71A, 71C, 93",NORTH OAKLAND,HOOD,North Oakland Neighborhood
576,40.449579,-79.950528,E15660,CRAIG ST AT BAYARD ST,Both,Yes,Yes,Yes,Bus,"54, 71A, 71C, 93",NORTH OAKLAND,HOOD,North Oakland Neighborhood
577,40.456471,-79.954757,E15665,CRAIG ST OPP BIGELOW BLVD,Both,Yes,Yes,Yes,Bus,"77, 93",NORTH OAKLAND,HOOD,North Oakland Neighborhood
578,40.456493,-79.955012,E15670,CRAIG ST AT BIGELOW BLVD FS,Both,Yes,Yes,Yes,Bus,"77, 93",NORTH OAKLAND,HOOD,North Oakland Neighborhood
579,40.451805,-79.951963,E15680,CRAIG ST AT CENTRE AVE,Both,Yes,Yes,Yes,Bus,"54, 71A, 71C, 93",NORTH OAKLAND,HOOD,North Oakland Neighborhood
580,40.447427,-79.949133,E15730,CRAIG ST AT PARK PLAZA,Both,Yes,Yes,Yes,Bus,"54, 71A, 71C, 93",NORTH OAKLAND,HOOD,North Oakland Neighborhood
581,40.443176,-79.987479,E15840,CRAWFORD ST AT WEBSTER AVE,Outbound,Yes,Yes,Yes,Bus,81,CRAWFORD-ROBERTS,HOOD,Crawford-Roberts Neighborhood
582,40.460895,-79.916038,E15925,EAST LIBERTY BLVD AT BROAD ST,Inbound,Yes,Yes,Yes,Bus,"74, 75, 89",EAST LIBERTY,HOOD,East Liberty Neighborhood
583,40.458158,-79.916578,E15950,EAST LIBERTY BLVD AT DAHLEM PL,Outbound,Yes,Yes,Yes,Bus,"74, 75, 77, 82, 86, 89",LARIMER,HOOD,Larimer Neighborhood
584,40.460632,-79.915612,E15960,EAST LIBERTY BLVD AT FRANKSTOWN AVE,Outbound,Yes,Yes,Yes,Bus,"74, 75, 77, 82, 86, 89, P17",LARIMER,HOOD,Larimer Neighborhood
585,40.459705,-79.915761,E15970,EAST LIBERTY BLVD AT HAMILTON AVE,Outbound,Yes,Yes,Yes,Bus,"74, 75, 77, 82, 86, 89",LARIMER,HOOD,Larimer Neighborhood
586,40.457668,-79.917331,E15980,EAST LIBERTY BLVD AT PENN AVE,Inbound,Yes,Yes,Yes,Bus,"74, 75, 77, 82, 86, 89",EAST LIBERTY,HOOD,East Liberty Neighborhood
587,40.459931,-79.91585,E16010,EAST LIBERTY BLVD OPP HAMILTON AVE,Inbound,Yes,Yes,Yes,Bus,"74, 75, 77, 82, 86, 89",EAST LIBERTY,HOOD,East Liberty Neighborhood
588,40.455862,-79.910589,E16015,FIFTH AVE RAMP AT FIFTH AVE FS,Both,Yes,Yes,Yes,Bus,"28X, 88, P10, P17",LARIMER,HOOD,Larimer Neighborhood
589,40.447924,-79.910825,E16020,DALLAS AVE OPP EDGERTON AVE,Both,Yes,Yes,Yes,Bus,"67, 69, 74",POINT BREEZE,HOOD,Point Breese Neighborhood
590,40.447667,-79.910785,E16030,DALLAS AVE AT EDGERTON AVE,Both,Yes,Yes,Yes,Bus,"67, 69, 74",POINT BREEZE,HOOD,Point Breese Neighborhood
591,40.451198,-79.908441,E16070,DALLAS AVE AT PENHAM PL,Inbound,Yes,Yes,Yes,Bus,"67, 69",POINT BREEZE,HOOD,Point Breese Neighborhood
592,40.451364,-79.908157,E16080,DALLAS AVE AT PENN AVE,Outbound,Yes,Yes,Yes,Bus,"67, 69",POINT BREEZE,HOOD,Point Breese Neighborhood
593,40.448971,-79.910184,E16100,DALLAS AVE AT REYNOLDS ST,Inbound,Yes,Yes,Yes,Bus,"67, 69",POINT BREEZE,HOOD,Point Breese Neighborhood
594,40.448598,-79.9101,E16110,DALLAS AVE AT REYNOLDS ST,Both,Yes,No,No,Bus,"67, 69, 74",POINT BREEZE,HOOD,Point Breese Neighborhood
595,40.436125,-79.913821,E16160,DARLINGTON RD AT BEACON ST,Both,Yes,Yes,Yes,Bus,65,SQUIRREL HILL SOUTH,HOOD,Squirrel Hill South Neighborhood
596,40.441139,-79.961439,E16190,DARRAGH ST OPP VICTORIA ST,Outbound,Yes,Yes,Yes,Bus,"81, 83",WEST OAKLAND,HOOD,West Oakland Neighborhood
597,40.469176,-79.905556,E16270,DEAN ST AT LARIMER AVE,Inbound,Yes,Yes,No,Bus,74,LINCOLN-LEMINGTON-BELMAR,HOOD,Lincoln-Lemington-Belmar Neighborhood
598,40.467996,-79.903793,E16300,DEAN ST AT PAULSON AVE,Outbound,Yes,Yes,Yes,Bus,74,LINCOLN-LEMINGTON-BELMAR,HOOD,Lincoln-Lemington-Belmar Neighborhood
599,40.443146,-79.959718,E16470,DESOTO ST AT O'HARA ST,Inbound,Yes,Yes,Yes,Bus,"81, 83",WEST OAKLAND,HOOD,West Oakland Neighborhood
600,40.445597,-79.981726,E16500,DEVILLIERS ST AT WEBSTER AVE,Outbound,Yes,Yes,Yes,Bus,83,MIDDLE HILL,HOOD,Middle Hill Neighborhood
601,40.444162,-79.980672,E16530,DEVILLIERS ST AT WYLIE AVE,Outbound,Yes,Yes,Yes,Bus,83,MIDDLE HILL,HOOD,Middle Hill Neighborhood
602,40.444259,-79.980927,E16540,DEVILLIERS ST AT WYLIE AVE,Inbound,Yes,Yes,Yes,Bus,83,CRAWFORD-ROBERTS,HOOD,Crawford-Roberts Neighborhood
603,40.456889,-79.967099,E16560,DOBSON ST AT BRERETON ST FS,Outbound,Yes,Yes,Yes,Bus,54,POLISH HILL,HOOD,Polish Hill Neighborhood
604,40.457424,-79.965903,E16580,DOBSON ST AT HANCOCK ST,Outbound,Yes,Yes,Yes,Bus,54,POLISH HILL,HOOD,Polish Hill Neighborhood
605,40.457837,-79.964979,E16600,DOBSON ST AT HARDING WAY,Outbound,Yes,Yes,Yes,Bus,54,POLISH HILL,HOOD,Polish Hill Neighborhood
606,40.458138,-79.964264,E16620,DOBSON ST AT HERRON AVE,Outbound,Yes,Yes,Yes,Bus,54,POLISH HILL,HOOD,Polish Hill Neighborhood
607,40.400678,-79.835511,E17230,DYNAMO WAY AT BEECH ST,Inbound,Yes,Yes,Yes,Bus,"59, 68, P68",EAST PITTSBURGH,BOROUGH,East Pittsburgh Borough
608,40.437518,-79.885844,E17257,EAST BUSWAY AT HAMNETT STATION C,Inbound,Yes,Yes,Yes,Busway,"P1, P3",WILKINSBURG,BOROUGH,Wilkinsburg Borough
609,40.437444,-79.885869,E17288,EAST BUSWAY AT HAMNETT STATION A,Outbound,Yes,Yes,Yes,Busway,"P1, P3",WILKINSBURG,BOROUGH,Wilkinsburg Borough
610,40.443271,-79.886907,E17289,EAST BUSWAY AT HAY ST RAMP INBOUND SHELTER,Both,Yes,Yes,Yes,Busway,"68, 71C, 71D, 79, 86, P12, P2, P68, P69, P7, P76",WILKINSBURG,BOROUGH,Wilkinsburg Borough
611,40.442796,-79.887008,E17290,EAST BUSWAY AT HAY ST RAMP OUTBOUND SHELTER,Both,Yes,Yes,Yes,Busway,"68, 69, 71, 71C, 71D, 79, 86, P12, P16, P2, P67, P68, P69, P7, P71, P76, P78",WILKINSBURG,BOROUGH,Wilkinsburg Borough
612,40.419173,-79.886408,E17291,EAST BUSWAY AT ROSLYN STATION C,Inbound,Yes,Yes,Yes,Busway,"P1, P3",SWISSVALE,BOROUGH,Swissvale Borough
613,40.418917,-79.886273,E17292,EAST BUSWAY AT ROSLYN STATION A,Outbound,Yes,Yes,Yes,Busway,"P1, P3",SWISSVALE,BOROUGH,Swissvale Borough
614,40.415244,-79.878731,E17293,EAST BUSWAY AT SWISSVALE STATION A,Both,Yes,No,No,Busway,"59, P1, P3, P71",SWISSVALE,BOROUGH,Swissvale Borough
615,40.459453,-79.922851,E17294,EAST BUSWAY AT EAST LIBERTY STATION D,Inbound,Yes,Yes,Yes,Busway,"P10, P12, P16, P67, P69, P7, P76, P78",SHADYSIDE,HOOD,Shadeyside Neighborhood
616,40.446386,-79.888546,E17295,EAST BUSWAY AT WILKINSBURG STATION B,Both,Yes,No,No,Busway,"68, 69, 71, 71C, 71D, 79, 86, P12, P16, P67, P68, P69, P7, P71, P76, P78",WILKINSBURG,BOROUGH,Wilkinsburg Borough
617,40.452909,-79.899058,E17296,EAST BUSWAY AT HOMEWOOD STATION D,Inbound,Yes,Yes,Yes,Busway,"P12, P16, P67, P69, P7, P76, P78",HOMEWOOD SOUTH,HOOD,Homewood South Neighborhood
618,40.446426,-79.888392,E17297,EAST BUSWAY AT WILKINSBURG STATION C,Inbound,Yes,Yes,Yes,Busway,"P1, P2, P3",WILKINSBURG,BOROUGH,Wilkinsburg Borough
619,40.446128,-79.888401,E17298,EAST BUSWAY AT WILKINSBURG STATION A,Outbound,Yes,Yes,Yes,Busway,"P1, P2, P3",WILKINSBURG,BOROUGH,Wilkinsburg Borough
620,40.452978,-79.899254,E17299,EAST BUSWAY AT HOMEWOOD STATION C,Inbound,Yes,No,No,Busway,"P1, P2, P3, P68, P71",HOMEWOOD SOUTH,HOOD,Homewood South Neighborhood
621,40.459205,-79.966599,E17300,EAST BUSWAY AT HERRON STATION B,Outbound,Yes,Yes,Yes,Busway,"P10, P12, P16, P17, P67, P68, P69, P7, P71, P76, P78",POLISH HILL,HOOD,Polish Hill Neighborhood
622,40.452813,-79.898947,E17301,EAST BUSWAY AT HOMEWOOD STATION A,Outbound,Yes,Yes,Yes,Busway,"P1, P2, P3",HOMEWOOD SOUTH,HOOD,Homewood South Neighborhood
623,40.459374,-79.923171,E17302,EAST BUSWAY AT EAST LIBERTY STATION C,Inbound,Yes,Yes,Yes,Busway,"P1, P17, P2, P3, P68, P71",SHADYSIDE,HOOD,Shadeyside Neighborhood
624,40.459399,-79.92286,E17303,EAST BUSWAY AT EAST LIBERTY STATION A,Outbound,Yes,Yes,Yes,Busway,"P1, P2, P3",SHADYSIDE,HOOD,Shadeyside Neighborhood
625,40.456634,-79.932696,E17304,EAST BUSWAY AT NEGLEY STATION C,Inbound,Yes,Yes,Yes,Busway,"P1, P17, P2, P3, P68, P71",SHADYSIDE,HOOD,Shadeyside Neighborhood
626,40.456656,-79.93241,E17305,EAST BUSWAY AT NEGLEY STATION A,Outbound,Yes,Yes,Yes,Busway,"P1, P2, P3",SHADYSIDE,HOOD,Shadeyside Neighborhood
627,40.459333,-79.966598,E17306,EAST BUSWAY AT HERRON STATION C,Inbound,Yes,Yes,Yes,Busway,"P1, P17, P2, P68, P71",POLISH HILL,HOOD,Polish Hill Neighborhood
628,40.459324,-79.966245,E17307,EAST BUSWAY AT HERRON STATION A,Outbound,Yes,No,No,Busway,"P1, P2",POLISH HILL,HOOD,Polish Hill Neighborhood
629,40.456658,-79.932507,E17308,EAST BUSWAY AT NEGLEY STATION B,Outbound,Yes,No,No,Busway,"P10, P12, P16, P17, P67, P68, P69, P7, P71, P76, P78",SHADYSIDE,HOOD,Shadeyside Neighborhood
630,40.4568,-79.932492,E17309,EAST BUSWAY AT NEGLEY STATION D,Inbound,Yes,No,No,Busway,"P10, P12, P16, P67, P69, P7, P76, P78",SHADYSIDE,HOOD,Shadeyside Neighborhood
631,40.459319,-79.923127,E17310,EAST BUSWAY AT EAST LIBERTY STATION B,Outbound,Yes,No,No,Busway,"P10, P12, P16, P17, P67, P68, P69, P7, P71, P76, P78",SHADYSIDE,HOOD,Shadeyside Neighborhood
632,40.452942,-79.899247,E17311,EAST BUSWAY AT HOMEWOOD STATION B,Outbound,Yes,Yes,Yes,Busway,"P12, P16, P67, P68, P69, P7, P71, P76, P78",HOMEWOOD SOUTH,HOOD,Homewood South Neighborhood
633,40.457675,-79.911891,E17312,EAST BUSWAY AT GARAGE EMPLOYEES ONLY STOP,Inbound,Yes,Yes,Yes,Busway,"P1, P10, P12, P16, P17, P2, P3, P67, P68, P69, P7, P71, P76, P78",LARIMER,HOOD,Larimer Neighborhood
634,40.457519,-79.911937,E17313,EAST BUSWAY AT GARAGE EMPLOYEES ONLY STOP,Outbound,Yes,No,No,Busway,"P1, P10, P12, P16, P17, P2, P3, P67, P68, P69, P7, P71, P76, P78",LARIMER,HOOD,Larimer Neighborhood
635,40.459405,-79.966303,E17314,EAST BUSWAY AT HERRON STATION D,Inbound,Yes,Yes,Yes,Busway,"P10, P12, P16, P67, P69, P7, P76, P78",POLISH HILL,HOOD,Polish Hill Neighborhood
636,40.446257,-79.88829,E17316,EAST BUSWAY AT WILKINSBURG STATION D,Both,Yes,Yes,Yes,Busway,"68, 69, 71, 71C, 71D, 79, 86, P12, P16, P67, P68, P69, P7, P71, P76, P78",WILKINSBURG,BOROUGH,Wilkinsburg Borough
637,40.452679,-79.87371,E17320,EAST HILLS DR AT PARK HILL DR,Inbound,Yes,Yes,Yes,Bus,79,EAST HILLS,HOOD,East Hills Neighborhood
638,40.453823,-79.873045,E17325,EAST HILLS DR AT SCHOOL DRVWY,Outbound,Yes,Yes,Yes,Bus,79,EAST HILLS,HOOD,East Hills Neighborhood
639,40.454957,-79.871158,E17330,EAST HILLS DR AT WILNER DR,Outbound,Yes,Yes,Yes,Bus,79,EAST HILLS,HOOD,East Hills Neighborhood
640,40.45456,-79.871901,E17340,EAST HILLS DR AT #2220,Outbound,Yes,Yes,Yes,Bus,79,EAST HILLS,HOOD,East Hills Neighborhood
641,40.454659,-79.872041,E17350,EAST HILLS DR OPP #2220,Inbound,Yes,Yes,Yes,Bus,79,EAST HILLS,HOOD,East Hills Neighborhood
642,40.454028,-79.873043,E17355,EAST HILLS DR OPP SCHOOL DRVWY,Inbound,Yes,Yes,Yes,Bus,79,EAST HILLS,HOOD,East Hills Neighborhood
643,40.466561,-79.925664,E17367,EAST LIBERTY BLVD AT EUCLID AVE,Inbound,Yes,Yes,Yes,Bus,89,EAST LIBERTY,HOOD,East Liberty Neighborhood
644,40.466781,-79.925072,E17368,EAST LIBERTY BLVD AT EUCLID AVE,Outbound,Yes,Yes,Yes,Bus,89,EAST LIBERTY,HOOD,East Liberty Neighborhood
645,40.465707,-79.92238,E17373,EAST LIBERTY BLVD AT HIGHLAND AVE FS,Inbound,Yes,Yes,Yes,Bus,"75, 89",EAST LIBERTY,HOOD,East Liberty Neighborhood
646,40.463374,-79.917726,E17380,EAST LIBERTY BLVD AT LARIMER AVE,Inbound,Yes,Yes,Yes,Bus,"75, 89",EAST LIBERTY,HOOD,East Liberty Neighborhood
647,40.467382,-79.927967,E17393,EAST LIBERTY BLVD AT NEGLEY AVE FS,Inbound,Yes,Yes,Yes,Bus,89,EAST LIBERTY,HOOD,East Liberty Neighborhood
648,40.467792,-79.927837,E17395,EAST LIBERTY BLVD AT NEGLEY AVE,Outbound,Yes,Yes,Yes,Bus,89,EAST LIBERTY,HOOD,East Liberty Neighborhood
649,40.465002,-79.92019,E17405,EAST LIBERTY BLVD AT CENTRE AVE,Inbound,Yes,Yes,Yes,Bus,"75, 89",EAST LIBERTY,HOOD,East Liberty Neighborhood
650,40.442753,-79.968203,E17422,ECKSTEIN PL AT WADSWORTH ST,Outbound,Yes,Yes,Yes,Bus,81,TERRACE VILLAGE,HOOD,Terrace Village Neighborhood
651,40.442661,-79.968494,E17424,ECKSTEIN PL AT WADSWORTH ST FS,Inbound,Yes,Yes,Yes,Bus,81,TERRACE VILLAGE,HOOD,Terrace Village Neighborhood
652,40.431543,-79.884402,E17440,EDGEWOOD AVE AT ELM ST FS,Inbound,Yes,Yes,Yes,Bus,"61A, P7",EDGEWOOD,BOROUGH,Edgewood Borough
653,40.424364,-79.885952,E17460,EDGEWOOD AVE AT COLUMBIA AVE,Inbound,Yes,Yes,Yes,Bus,"61A, P7",SWISSVALE,BOROUGH,Swissvale Borough
654,40.425295,-79.885623,E17480,EDGEWOOD AVE AT DELAWARE AVE,Inbound,Yes,Yes,Yes,Bus,"61A, P7",SWISSVALE,BOROUGH,Swissvale Borough
655,40.430193,-79.884301,E17510,EDGEWOOD AVE AT EDGEWOOD CT,Inbound,Yes,Yes,Yes,Bus,"61A, P7",EDGEWOOD,BOROUGH,Edgewood Borough
656,40.428637,-79.884554,E17540,EDGEWOOD AVE AT GORDON ST,Inbound,Yes,Yes,Yes,Bus,"61A, P7",EDGEWOOD,BOROUGH,Edgewood Borough
657,40.426708,-79.88514,E17560,EDGEWOOD AVE AT LACROSSE ST,Inbound,Yes,Yes,Yes,Bus,"61A, P7",SWISSVALE,BOROUGH,Swissvale Borough
658,40.427711,-79.884855,E17580,EDGEWOOD AVE AT LLOYD AVE,Inbound,Yes,Yes,Yes,Bus,"61A, P7",EDGEWOOD,BOROUGH,Edgewood Borough
659,40.43287,-79.884664,E17590,EDGEWOOD AVE AT MAPLE AVE,Inbound,Yes,Yes,Yes,Bus,"61A, P7",EDGEWOOD,BOROUGH,Edgewood Borough
660,40.431491,-79.884603,E17610,EDGEWOOD AVE OPP ELM ST,Outbound,Yes,Yes,Yes,Bus,"61A, P7",EDGEWOOD,BOROUGH,Edgewood Borough
661,40.424628,-79.88604,E17620,EDGEWOOD AVE OPP COLUMBIA AVE,Outbound,Yes,Yes,Yes,Bus,"61A, P7",EDGEWOOD,BOROUGH,Edgewood Borough
662,40.425534,-79.885768,E17640,EDGEWOOD AVE OPP DELAWARE AVE,Outbound,Yes,Yes,Yes,Bus,"61A, P7",EDGEWOOD,BOROUGH,Edgewood Borough
663,40.428893,-79.884784,E17680,EDGEWOOD AVE OPP GORDON ST,Outbound,Yes,Yes,Yes,Bus,"61A, P7",EDGEWOOD,BOROUGH,Edgewood Borough
664,40.426968,-79.885268,E17700,EDGEWOOD AVE OPP LACROSSE AVE,Outbound,Yes,No,No,Bus,"61A, P7",EDGEWOOD,BOROUGH,Edgewood Borough
665,40.422974,-79.886334,E17720,EDGEWOOD AVE AT SAILOR PL FS,Inbound,Yes,No,No,Bus,"61A, P7",SWISSVALE,BOROUGH,Swissvale Borough
666,40.424801,-79.887444,E17750,EDGEWOOD TOWNE CENTRE AT TOWNE CENTRE OFFICES,Inbound,Yes,No,No,Bus,"71, P71",SWISSVALE,BOROUGH,Swissvale Borough
667,40.427368,-79.886414,E17760,EDGEWOOD TOWNE CENTRE AT DOLLAR TREE,Both,Yes,No,No,Bus,"71, P71",EDGEWOOD,BOROUGH,Edgewood Borough
668,40.425831,-79.886734,E17770,EDGEWOOD TOWNE CENTRE AT GIANT EAGLE FS,Both,Yes,No,No,Bus,"71, P71",EDGEWOOD,BOROUGH,Edgewood Borough
669,40.427841,-79.887283,E17780,EDGEWOOD TOWNE CENTRE AT LAUNDRY ROOM,Both,Yes,Yes,Yes,Bus,"71, P71",EDGEWOOD,BOROUGH,Edgewood Borough
670,40.426666,-79.88768,E17790,EDGEWOOD TOWNE CENTRE AT RENT WAY,Both,Yes,Yes,Yes,Bus,"71, P71",EDGEWOOD,BOROUGH,Edgewood Borough
671,40.402899,-79.837551,E17940,ELECTRIC AVE AT GREEK CATHOLIC CHURCH,Outbound,Yes,Yes,Yes,Bus,"69, P69",NORTH BRADDOCK,BOROUGH,North Braddock Borough
672,40.40221,-79.836619,E17965,ELECTRIC AVE OPP ELECTRIC AVENUE APARTMENTS,Inbound,Yes,Yes,Yes,Bus,"69, P69",EAST PITTSBURGH,BOROUGH,East Pittsburgh Borough
673,40.405326,-79.838921,E17970,ELECTRIC AVE AT NORTH AVE,Inbound,Yes,Yes,Yes,Bus,"69, P69",NORTH BRADDOCK,BOROUGH,North Braddock Borough
674,40.401154,-79.834834,E18010,ELECTRIC AVE OPP DYNAMO WAY,Inbound,Yes,Yes,Yes,Bus,"69, P69",EAST PITTSBURGH,BOROUGH,East Pittsburgh Borough
675,40.402738,-79.83724,E18020,ELECTRIC AVE AT OLYMPIA HALL,Inbound,Yes,Yes,Yes,Bus,"69, P69",WILKINS,TOWNSHIP,Wilkins Township
676,40.402065,-79.836732,E18025,ELECTRIC AVE AT ELECTRIC AVENUE APARTMENTS,Outbound,Yes,Yes,Yes,Bus,"69, P69",EAST PITTSBURGH,BOROUGH,East Pittsburgh Borough
677,40.405463,-79.839374,E18040,ELECTRIC AVE OPP NORTH AVE,Outbound,Yes,Yes,Yes,Bus,"69, P69",NORTH BRADDOCK,BOROUGH,North Braddock Borough
678,40.464467,-79.950631,E18270,ELLA ST AT FRIENDSHIP AVE FS,Inbound,Yes,Yes,Yes,Bus,87,BLOOMFIELD,HOOD,Bloomfield Neighborhood
679,40.463324,-79.951812,E18280,ELLA ST AT LIBERTY AVE,Inbound,Yes,Yes,Yes,Bus,87,BLOOMFIELD,HOOD,Bloomfield Neighborhood
680,40.452813,-79.936656,E18400,ELLSWORTH AVE AT AIKEN AVE,Inbound,Yes,Yes,Yes,Bus,75,SHADYSIDE,HOOD,Shadeyside Neighborhood
681,40.452551,-79.936853,E18410,ELLSWORTH AVE AT AIKEN AVE,Outbound,Yes,Yes,Yes,Bus,75,SHADYSIDE,HOOD,Shadeyside Neighborhood
682,40.451387,-79.940904,E18420,ELLSWORTH AVE AT AMBERSON AVE,Inbound,Yes,Yes,Yes,Bus,75,SHADYSIDE,HOOD,Shadeyside Neighborhood
683,40.451209,-79.941072,E18430,ELLSWORTH AVE AT AMBERSON AVE,Outbound,Yes,Yes,Yes,Bus,75,SHADYSIDE,HOOD,Shadeyside Neighborhood
684,40.448496,-79.94695,E18450,ELLSWORTH AVE AT CATHEDRAL MANSIONS,Outbound,Yes,Yes,Yes,Bus,75,SHADYSIDE,HOOD,Shadeyside Neighborhood
685,40.456947,-79.929386,E18470,ELLSWORTH AVE AT COLLEGE ST,Outbound,Yes,Yes,Yes,Bus,75,SHADYSIDE,HOOD,Shadeyside Neighborhood
686,40.451945,-79.939179,E18480,ELLSWORTH AVE AT COLONIAL PL,Inbound,Yes,Yes,Yes,Bus,75,SHADYSIDE,HOOD,Shadeyside Neighborhood
687,40.450505,-79.944924,E18490,ELLSWORTH AVE AT DEVONSHIRE ST,Inbound,Yes,Yes,Yes,Bus,75,SHADYSIDE,HOOD,Shadeyside Neighborhood
688,40.450299,-79.945092,E18500,ELLSWORTH AVE AT DEVONSHIRE ST,Outbound,Yes,Yes,Yes,Bus,75,SHADYSIDE,HOOD,Shadeyside Neighborhood
689,40.451853,-79.93891,E18510,ELLSWORTH AVE AT ELLSWORTH PL,Outbound,Yes,Yes,Yes,Bus,75,SHADYSIDE,HOOD,Shadeyside Neighborhood
690,40.453761,-79.934378,E18520,ELLSWORTH AVE AT FILBERT ST,Outbound,Yes,Yes,Yes,Bus,75,SHADYSIDE,HOOD,Shadeyside Neighborhood
691,40.453746,-79.934735,E18530,ELLSWORTH AVE AT GRAHAM ST,Inbound,Yes,Yes,Yes,Bus,75,SHADYSIDE,HOOD,Shadeyside Neighborhood
692,40.456189,-79.930763,E18560,ELLSWORTH AVE AT MARYLAND AVE,Inbound,Yes,Yes,Yes,Bus,75,SHADYSIDE,HOOD,Shadeyside Neighborhood
693,40.455914,-79.930907,E18570,ELLSWORTH AVE AT MARYLAND AVE,Outbound,Yes,Yes,Yes,Bus,75,SHADYSIDE,HOOD,Shadeyside Neighborhood
694,40.450962,-79.942936,E18580,ELLSWORTH AVE AT MOREWOOD AVE,Inbound,Yes,Yes,Yes,Bus,75,SHADYSIDE,HOOD,Shadeyside Neighborhood
695,40.450793,-79.943157,E18590,ELLSWORTH AVE AT MOREWOOD AVE,Outbound,Yes,Yes,Yes,Bus,75,SHADYSIDE,HOOD,Shadeyside Neighborhood
696,40.454873,-79.932406,E18600,ELLSWORTH AVE AT NEGLEY AVE,Inbound,Yes,Yes,Yes,Bus,75,SHADYSIDE,HOOD,Shadeyside Neighborhood
697,40.454587,-79.932692,E18610,ELLSWORTH AVE AT NEGLEY AVE,Outbound,Yes,Yes,Yes,Bus,75,SHADYSIDE,HOOD,Shadeyside Neighborhood
698,40.44813,-79.947629,E18620,ELLSWORTH AVE AT NEVILLE ST,Inbound,Yes,Yes,Yes,Bus,75,SHADYSIDE,HOOD,Shadeyside Neighborhood
699,40.455306,-79.931719,E18625,ELLSWORTH AVE AT SUMMERLEA ST,Inbound,Yes,Yes,Yes,Bus,75,SHADYSIDE,HOOD,Shadeyside Neighborhood
700,40.455043,-79.931821,E18627,ELLSWORTH AVE AT SUMMERLEA ST,Outbound,Yes,Yes,Yes,Bus,75,SHADYSIDE,HOOD,Shadeyside Neighborhood
701,40.448951,-79.946723,E18630,ELLSWORTH AVE OPP CLYDE ST,Inbound,Yes,Yes,Yes,Bus,75,SHADYSIDE,HOOD,Shadeyside Neighborhood
702,40.47898,-79.917783,E18850,EUCLID AVE AT BUNKERHILL ST,Outbound,Yes,Yes,Yes,Bus,"71A, 71B",HIGHLAND PARK,HOOD,Highland Park Neighborhood
703,40.47704,-79.918917,E18870,EUCLID AVE AT CALLOWHILL ST,Outbound,Yes,Yes,Yes,Bus,"71A, 71B",HIGHLAND PARK,HOOD,Highland Park Neighborhood
704,40.432675,-79.794318,E18905,EXPOMART DR AT WEST ENTRANCE,Outbound,Yes,No,No,Bus,"67, P67",MONROEVILLE,MUNICIPALI,Monroeville Municipality
705,40.43265,-79.793884,E18907,EXPOMART DR AT WEST ENTRANCE,Inbound,Yes,No,No,Bus,"67, P67",MONROEVILLE,MUNICIPALI,Monroeville Municipality
706,40.466706,-79.705948,E18965,OLD ABERS CREEK RD AT HOLIDAY PARK VFD,Both,Yes,No,No,Bus,P12,PLUM,BOROUGH,Plum Borough
707,40.473153,-79.708102,E18970,FIESTA DR AT #251,Both,Yes,No,No,Bus,P12,PLUM,BOROUGH,Plum Borough
708,40.474789,-79.709075,E18980,FIESTA DR OPP RIVIERA DR,Both,Yes,Yes,Yes,Bus,P12,PLUM,BOROUGH,Plum Borough
709,40.471671,-79.707546,E19010,FIESTA DR OPP SUN VALLEY DR,Both,Yes,Yes,Yes,Bus,P12,PLUM,BOROUGH,Plum Borough
710,40.440939,-79.957623,E19130,FORBES AVE AT ATWOOD ST,Both,Yes,Yes,Yes,Bus,"28X, 58, 61A, 61B, 61C, 61D, 67, 69",CENTRAL OAKLAND,HOOD,Central Oakland Neighborhood
711,40.438096,-79.91602,E19150,FORBES AVE AT BEECHWOOD BLVD,Inbound,Yes,Yes,Yes,Bus,"61A, 61B",SQUIRREL HILL NORTH,HOOD,Squirrel Hill North Neighborhood
712,40.43796,-79.916337,E19160,FORBES AVE AT BEECHWOOD BLVD,Outbound,Yes,Yes,Yes,Bus,"61A, 61B",SQUIRREL HILL SOUTH,HOOD,Squirrel Hill South Neighborhood
713,40.443774,-79.938604,E19170,FORBES AVE AT BEELER ST,Inbound,Yes,Yes,Yes,Bus,"61A, 61B, 61C, 61D",SQUIRREL HILL NORTH,HOOD,Squirrel Hill North Neighborhood
714,40.443052,-79.953663,E19200,FORBES AVE AT BIGELOW BLVD (SCHENLEY DR),Both,Yes,Yes,Yes,Bus,"28X, 58, 61A, 61B, 61C, 61D, 67, 69",CENTRAL OAKLAND,HOOD,Central Oakland Neighborhood
715,40.442062,-79.956097,E19210,FORBES AVE AT BOUQUET ST FS,Both,Yes,Yes,Yes,Bus,"28X, 58, 61A, 61B, 61C, 61D, 67, 69",CENTRAL OAKLAND,HOOD,Central Oakland Neighborhood
716,40.437939,-79.993457,E19220,FORBES AVE AT BOYD ST (DUQUESNE UNIV),Outbound,Yes,Yes,Yes,Bus,"61A, 61B, 61C, 61D, 71A, 71B, 71C, 71D",BLUFF,HOOD,Bluff Neighborhood
717,40.439742,-79.897551,E19230,FORBES AVE AT BRADDOCK AVE,Inbound,Yes,Yes,Yes,Bus,61A,POINT BREEZE,HOOD,Point Breese Neighborhood
718,40.439509,-79.897996,E19260,FORBES AVE AT BRADDOCK AVE,Outbound,Yes,Yes,Yes,Bus,61B,REGENT SQUARE,HOOD,Regent Square Neighborhood
719,40.439746,-79.898088,E19270,FORBES AVE AT BRADDOCK AVE FS,Inbound,Yes,Yes,Yes,Bus,"61A, 61B",POINT BREEZE,HOOD,Point Breese Neighborhood
720,40.437264,-79.962711,E19310,FORBES AVE AT CRAFT AVE FS,Both,Yes,Yes,Yes,Bus,"28X, 61A, 61B, 61C, 61D, 67, 69, 81, 83",SOUTH OAKLAND,HOOD,South Oakland Neighborhood
721,40.444547,-79.948475,E19320,FORBES AVE AT CRAIG ST,Both,Yes,Yes,Yes,Bus,"28X, 58, 61A, 61B, 61C, 61D, 67, 69",NORTH OAKLAND,HOOD,North Oakland Neighborhood
722,40.438108,-79.912884,E19340,FORBES AVE AT DALLAS AVE,Inbound,Yes,Yes,Yes,Bus,"61A, 61B",POINT BREEZE,HOOD,Point Breese Neighborhood
723,40.437901,-79.913265,E19350,FORBES AVE AT DALLAS AVE,Outbound,Yes,Yes,Yes,Bus,"61A, 61B",SQUIRREL HILL SOUTH,HOOD,Squirrel Hill South Neighborhood
724,40.43809,-79.918176,E19360,FORBES AVE BTW DENNISTON ST & SHADY AVE,Inbound,Yes,Yes,Yes,Bus,"61A, 61B",SQUIRREL HILL NORTH,HOOD,Squirrel Hill North Neighborhood
725,40.437937,-79.917844,E19370,FORBES AVE AT DENNISTON ST,Outbound,Yes,Yes,Yes,Bus,"61A, 61B",SQUIRREL HILL SOUTH,HOOD,Squirrel Hill South Neighborhood
726,40.444159,-79.950081,E19400,FORBES AVE AT DITHRIDGE ST,Both,Yes,Yes,Yes,Bus,"28X, 58, 61A, 61B, 61C, 61D, 67, 69",NORTH OAKLAND,HOOD,North Oakland Neighborhood
727,40.439833,-79.895568,E19420,FORBES AVE AT CELERON ST,Inbound,Yes,Yes,Yes,Bus,61A,POINT BREEZE,HOOD,Point Breese Neighborhood
728,40.439629,-79.896579,E19430,FORBES AVE AT EAST END AVE,Outbound,Yes,Yes,Yes,Bus,61A,REGENT SQUARE,HOOD,Regent Square Neighborhood
729,40.437271,-79.979707,E19440,FORBES AVE AT GIST ST,Outbound,Yes,Yes,Yes,Bus,"61A, 61B, 61C, 61D, 71A, 71B, 71C, 71D",BLUFF,HOOD,Bluff Neighborhood
730,40.438289,-79.961275,E19460,FORBES AVE AT HALKET ST (MAGEE HOSPITAL),Both,Yes,Yes,Yes,Bus,"28X, 61A, 61B, 61C, 61D, 67, 69, 81, 83",SOUTH OAKLAND,HOOD,South Oakland Neighborhood
731,40.437862,-79.991356,E19470,FORBES AVE AT MCANULTY DR,Outbound,Yes,Yes,Yes,Bus,"61A, 61B, 61C, 61D, 71A, 71B, 71C, 71D",BLUFF,HOOD,Bluff Neighborhood
732,40.437207,-79.977887,E19480,FORBES AVE AT JUMONVILLE ST,Outbound,Yes,Yes,Yes,Bus,"61A, 61B, 61C, 61D",BLUFF,HOOD,Bluff Neighborhood
733,40.437697,-79.988717,E19510,FORBES AVE AT MAGEE ST,Outbound,Yes,Yes,Yes,Bus,"61A, 61B, 61C, 61D, 71A, 71B, 71C, 71D",BLUFF,HOOD,Bluff Neighborhood
734,40.442722,-79.937873,E19520,FORBES AVE AT MARGARET MORRISON ST NS,Outbound,Yes,Yes,Yes,Bus,"61A, 61B, 61C, 61D",SQUIRREL HILL NORTH,HOOD,Squirrel Hill North Neighborhood
735,40.439635,-79.959442,E19570,FORBES AVE AT MCKEE PL,Both,Yes,Yes,Yes,Bus,"28X, 58, 61A, 61B, 61C, 61D, 67, 69, 81, 83",CENTRAL OAKLAND,HOOD,Central Oakland Neighborhood
736,40.440408,-79.958338,E19580,FORBES AVE AT MEYRAN AVE,Inbound,Yes,Yes,Yes,Bus,"81, 83",CENTRAL OAKLAND,HOOD,Central Oakland Neighborhood
